[
  {
    "name": "\u00dcberlingen - Seezeichen 24",
    "lat": "47.7705",
    "lng": "9.1377",
    "averageMaxDepth": "24",
    "averageDivetime": "46",
    "averageVis": "10",
    "level": [
      "advanced",
      "expert"
    ],
    "wildlife": [
      22,
      27,
      255,
      256,
      260
    ],
    "country_iso3": "DEU"
  },
  {
    "name": "Gota El Dir",
    "lat": "27.4352",
    "lng": "33.7393",
    "averageMaxDepth": "16",
    "averageDivetime": "50",
    "averageVis": "21",
    "level": [
      "beginner"
    ],
    "wildlife": [
      55,
      92,
      116,
      123,
      124,
      126,
      127,
      129,
      132,
      143
    ],
    "country_iso3": "EGY"
  },
  {
    "name": "Gota Iris",
    "lat": "27.3460",
    "lng": "33.8396",
    "averageMaxDepth": "13",
    "averageDivetime": "54",
    "averageVis": "22",
    "level": [
      "beginner"
    ],
    "wildlife": [
      93,
      99,
      112,
      116,
      122,
      123,
      126,
      127,
      130,
      131,
      136,
      137,
      141,
      142,
      143,
      144,
      150,
      153
    ],
    "country_iso3": "EGY"
  },
  {
    "name": "Poseidon Reef",
    "lat": "27.3906",
    "lng": "33.8719",
    "averageMaxDepth": "15",
    "averageDivetime": "52",
    "averageVis": "21",
    "level": [
      "beginner"
    ],
    "wildlife": [
      55,
      92,
      93,
      115,
      116,
      122,
      123,
      126,
      127,
      131,
      132,
      133,
      134,
      137,
      141,
      143,
      147,
      148
    ],
    "country_iso3": "EGY"
  },
  {
    "name": "Shabha",
    "lat": "27.3394",
    "lng": "33.7760",
    "averageMaxDepth": "14",
    "averageDivetime": "53",
    "averageVis": "23",
    "level": [
      "beginner"
    ],
    "wildlife": [
      93,
      116,
      121,
      122,
      123,
      126,
      127,
      130,
      137,
      141,
      143,
      144,
      147,
      148
    ],
    "country_iso3": "EGY"
  },
  {
    "name": "Elphinstone South",
    "lat": "25.3063",
    "lng": "34.8619",
    "averageMaxDepth": "29",
    "averageDivetime": "52",
    "averageVis": "25",
    "level": [
      "advanced",
      "expert"
    ],
    "wildlife": [
      71,
      72,
      127,
      129,
      141
    ],
    "country_iso3": "EGY"
  },
  {
    "name": "Villa Koraffi",
    "lat": "25.5555",
    "lng": "34.6426",
    "averageMaxDepth": "20",
    "averageDivetime": "55",
    "averageVis": "21",
    "level": [
      "beginner",
      "advanced",
      "expert"
    ],
    "wildlife": [
      98,
      99,
      121,
      122,
      127,
      129,
      130,
      134,
      140,
      147
    ],
    "country_iso3": "EGY"
  },
  {
    "name": "Marsa Egla",
    "lat": "25.1726",
    "lng": "34.8422",
    "averageMaxDepth": "15",
    "averageDivetime": "58",
    "averageVis": "18",
    "level": [
      "beginner",
      "advanced"
    ],
    "wildlife": [
      63,
      93,
      98,
      100
    ],
    "country_iso3": "EGY"
  },
  {
    "name": "Marsa Shagra House Reef",
    "lat": "25.2452",
    "lng": "34.7966",
    "averageMaxDepth": "19",
    "averageDivetime": "50",
    "averageVis": "19",
    "level": [
      "beginner",
      "advanced",
      "expert"
    ],
    "wildlife": [
      93
    ],
    "country_iso3": "EGY"
  },
  {
    "name": "Sha\u2019ab Marsa Alam",
    "lat": "25.0719",
    "lng": "34.9364",
    "averageMaxDepth": "18",
    "averageDivetime": "53",
    "averageVis": "23",
    "level": [
      "beginner"
    ],
    "wildlife": [
      93,
      132,
      150
    ],
    "country_iso3": "EGY"
  },
  {
    "name": "Gamul Soraya",
    "lat": "26.7961",
    "lng": "33.9916",
    "averageMaxDepth": "16",
    "averageDivetime": "55",
    "averageVis": "23",
    "level": [
      "beginner"
    ],
    "wildlife": [
      92,
      115,
      116,
      117,
      121,
      122,
      123,
      124,
      126,
      127,
      129,
      130,
      131,
      132,
      133,
      134,
      136,
      137,
      138,
      139,
      140,
      141,
      142,
      143,
      144,
      147,
      150
    ],
    "country_iso3": "EGY"
  },
  {
    "name": "Robinson Club Soma Bay House Reef",
    "lat": "26.8439",
    "lng": "33.9875",
    "averageMaxDepth": "8",
    "averageDivetime": "54",
    "averageVis": "22",
    "level": [
      "beginner"
    ],
    "wildlife": [
      116,
      123,
      126,
      127,
      132,
      140,
      141,
      142,
      143,
      148
    ],
    "country_iso3": "EGY"
  },
  {
    "name": "Salem Express, wreck",
    "lat": "26.6395",
    "lng": "34.0611",
    "averageMaxDepth": "26",
    "averageDivetime": "47",
    "averageVis": "24",
    "level": [
      "advanced",
      "expert"
    ],
    "wildlife": [
      115,
      116,
      123,
      124,
      126,
      127,
      129,
      138,
      139,
      140,
      143,
      147
    ],
    "country_iso3": "EGY"
  },
  {
    "name": "Shaab Hamdallah",
    "lat": "26.6305",
    "lng": "34.0688",
    "averageMaxDepth": "20",
    "averageDivetime": "52",
    "averageVis": "21",
    "level": [
      "beginner",
      "advanced",
      "expert"
    ],
    "wildlife": [],
    "country_iso3": "EGY"
  },
  {
    "name": "Tobia Kebir",
    "lat": "26.8089",
    "lng": "33.9954",
    "averageMaxDepth": "16",
    "averageDivetime": "55",
    "averageVis": "24",
    "level": [
      "beginner",
      "advanced"
    ],
    "wildlife": [
      93,
      115,
      116,
      117,
      121,
      122,
      123,
      126,
      127,
      129,
      130,
      131,
      132,
      133,
      134,
      136,
      137,
      138,
      140,
      141,
      142,
      143,
      144,
      147,
      148,
      149,
      150
    ],
    "country_iso3": "EGY"
  },
  {
    "name": "Abu Helal",
    "lat": "28.5422",
    "lng": "34.5167",
    "averageMaxDepth": "28",
    "averageDivetime": "51",
    "averageVis": "21",
    "level": [
      "beginner",
      "advanced",
      "expert"
    ],
    "wildlife": [
      92,
      121,
      122,
      123,
      126,
      134,
      137,
      143,
      144,
      147,
      149
    ],
    "country_iso3": "EGY"
  },
  {
    "name": "Circle Divers Dahab House Reef",
    "lat": "28.4789",
    "lng": "34.4917",
    "averageMaxDepth": "12",
    "averageDivetime": "47",
    "averageVis": "17",
    "level": [
      "beginner"
    ],
    "wildlife": [
      92,
      93,
      94,
      112,
      118,
      121,
      122,
      123,
      127,
      132,
      133,
      134,
      136,
      137,
      138,
      142,
      144,
      147,
      148,
      149,
      285
    ],
    "country_iso3": "EGY"
  },
  {
    "name": "Anemone City",
    "lat": "27.7278",
    "lng": "34.2591",
    "averageMaxDepth": "24",
    "averageDivetime": "52",
    "averageVis": "25",
    "level": [
      "beginner",
      "advanced",
      "expert"
    ],
    "wildlife": [
      92,
      93,
      98,
      115,
      116,
      121,
      122,
      123,
      124,
      126,
      127,
      132,
      134,
      136,
      137,
      143,
      147,
      150,
      151,
      153
    ],
    "country_iso3": "EGY"
  },
  {
    "name": "Tower",
    "lat": "27.8829",
    "lng": "34.3265",
    "averageMaxDepth": "21",
    "averageDivetime": "49",
    "averageVis": "25",
    "level": [
      "beginner",
      "advanced"
    ],
    "wildlife": [
      115,
      116,
      121,
      126,
      127,
      132,
      134,
      136,
      137,
      143,
      144,
      147
    ],
    "country_iso3": "EGY"
  },
  {
    "name": "Badia de Tamariu",
    "lat": "41.9177",
    "lng": "3.2090",
    "averageMaxDepth": "12",
    "averageDivetime": "49",
    "averageVis": "13",
    "level": [
      "beginner",
      "advanced"
    ],
    "wildlife": [
      94,
      95,
      108,
      112,
      116,
      118,
      119,
      126,
      138,
      148,
      150,
      151,
      152,
      153
    ],
    "country_iso3": "ESP"
  },
  {
    "name": "El Arenal de las Chicharras",
    "lat": "39.9972",
    "lng": "3.8004",
    "averageMaxDepth": "19",
    "averageDivetime": "41",
    "averageVis": "20",
    "level": [
      "beginner",
      "advanced"
    ],
    "wildlife": [
      93,
      116,
      119,
      124,
      136,
      150,
      152,
      154,
      156,
      157
    ],
    "country_iso3": "ESP"
  },
  {
    "name": "Porto Pi (Wreck)",
    "lat": "39.5427",
    "lng": "2.6306",
    "averageMaxDepth": "25",
    "averageDivetime": "38",
    "averageVis": "15",
    "level": [
      "advanced",
      "expert"
    ],
    "wildlife": [],
    "country_iso3": "ESP"
  },
  {
    "name": "El Balito",
    "lat": "28.1386",
    "lng": "-16.7920",
    "averageMaxDepth": "20",
    "averageDivetime": "44",
    "averageVis": "18",
    "level": [
      "beginner",
      "advanced"
    ],
    "wildlife": [
      86,
      93,
      116,
      124,
      126,
      132,
      134,
      137,
      140,
      143,
      148,
      150,
      152,
      153,
      155,
      156
    ],
    "country_iso3": "ESP"
  },
  {
    "name": "Playa La Bombilla",
    "lat": "28.5923",
    "lng": "-17.9197",
    "averageMaxDepth": "13",
    "averageDivetime": "49",
    "averageVis": "13",
    "level": [
      "beginner",
      "advanced",
      "expert"
    ],
    "wildlife": [
      99
    ],
    "country_iso3": "ESP"
  },
  {
    "name": "Pasito Blanco",
    "lat": "27.7358",
    "lng": "-15.6234",
    "averageMaxDepth": "19",
    "averageDivetime": "44",
    "averageVis": "17",
    "level": [
      "beginner"
    ],
    "wildlife": [
      86,
      92,
      93,
      94,
      115,
      116,
      124,
      126,
      129,
      132,
      136,
      137,
      146,
      148,
      277,
      281
    ],
    "country_iso3": "ESP"
  },
  {
    "name": "Puerto Naos - Playa Chica",
    "lat": "28.5866",
    "lng": "-17.9120",
    "averageMaxDepth": "24",
    "averageDivetime": "45",
    "averageVis": "19",
    "level": [
      "beginner",
      "advanced",
      "expert"
    ],
    "wildlife": [
      116,
      117,
      126,
      132,
      136,
      137,
      140,
      141,
      143,
      146
    ],
    "country_iso3": "ESP"
  },
  {
    "name": "Double Arch",
    "lat": "36.0808",
    "lng": "14.2476",
    "averageMaxDepth": "32",
    "averageDivetime": "55",
    "averageVis": "22",
    "level": [
      "advanced",
      "expert"
    ],
    "wildlife": [
      115,
      116,
      124,
      126,
      132,
      136,
      137,
      138
    ],
    "country_iso3": "MLT"
  },
  {
    "name": "Aquabest",
    "lat": "51.4982",
    "lng": "5.4345",
    "averageMaxDepth": "10",
    "averageDivetime": "41",
    "averageVis": "4",
    "level": [
      "beginner"
    ],
    "wildlife": [],
    "country_iso3": "NLD"
  },
  {
    "name": "t Blauwe Meer",
    "lat": "51.6125",
    "lng": "5.0635",
    "averageMaxDepth": "11",
    "averageDivetime": "48",
    "averageVis": "5",
    "level": [
      "beginner"
    ],
    "wildlife": [
      25,
      26,
      260
    ],
    "country_iso3": "NLD"
  },
  {
    "name": "Veenmeer",
    "lat": "53.0843",
    "lng": "6.6354",
    "averageMaxDepth": "8",
    "averageDivetime": "42",
    "averageVis": "3",
    "level": [
      "beginner"
    ],
    "wildlife": [
      25,
      27,
      232
    ],
    "country_iso3": "NLD"
  },
  {
    "name": "Waldfennen",
    "lat": "52.9626",
    "lng": "5.7526",
    "averageMaxDepth": "12",
    "averageDivetime": "36",
    "averageVis": "3",
    "level": [
      "beginner",
      "advanced"
    ],
    "wildlife": [],
    "country_iso3": "NLD"
  },
  {
    "name": "De Groene Heuvels",
    "lat": "51.8477",
    "lng": "5.6916",
    "averageMaxDepth": "11",
    "averageDivetime": "38",
    "averageVis": "5",
    "level": [
      "beginner",
      "advanced"
    ],
    "wildlife": [],
    "country_iso3": "NLD"
  },
  {
    "name": "Maarssenveenseplas",
    "lat": "52.1414",
    "lng": "5.0876",
    "averageMaxDepth": "11",
    "averageDivetime": "43",
    "averageVis": "4",
    "level": [
      "beginner",
      "advanced"
    ],
    "wildlife": [],
    "country_iso3": "NLD"
  },
  {
    "name": "Blijkpolder",
    "lat": "52.2575",
    "lng": "5.0491",
    "averageMaxDepth": "10",
    "averageDivetime": "51",
    "averageVis": "6",
    "level": [
      "beginner",
      "advanced",
      "expert"
    ],
    "wildlife": [
      21,
      22,
      23,
      25,
      27,
      232,
      254
    ],
    "country_iso3": "NLD"
  },
  {
    "name": "Ouderkerkerplas",
    "lat": "52.2929",
    "lng": "4.9316",
    "averageMaxDepth": "13",
    "averageDivetime": "53",
    "averageVis": "5",
    "level": [
      "beginner"
    ],
    "wildlife": [],
    "country_iso3": "NLD"
  },
  {
    "name": "Burghsluis Oostbout",
    "lat": "51.6746",
    "lng": "3.7581",
    "averageMaxDepth": "14",
    "averageDivetime": "49",
    "averageVis": "2",
    "level": [
      "advanced",
      "expert"
    ],
    "wildlife": [],
    "country_iso3": "NLD"
  },
  {
    "name": "Slag Baardmannetje",
    "lat": "51.9267",
    "lng": "4.0481",
    "averageMaxDepth": "14",
    "averageDivetime": "39",
    "averageVis": "4",
    "level": [
      "beginner",
      "advanced",
      "expert"
    ],
    "wildlife": [],
    "country_iso3": "NLD"
  },
  {
    "name": "Barcadera (21)",
    "lat": "12.1960",
    "lng": "-68.3058",
    "averageMaxDepth": "18",
    "averageDivetime": "52",
    "averageVis": "19",
    "level": [
      "beginner"
    ],
    "wildlife": [],
    "country_iso3": "BES"
  },
  {
    "name": "Andrea II (22)",
    "lat": "12.1912",
    "lng": "-68.2984",
    "averageMaxDepth": "20",
    "averageDivetime": "53",
    "averageVis": "22",
    "level": [
      "beginner"
    ],
    "wildlife": [
      81,
      92,
      93,
      98,
      100,
      108,
      116,
      121,
      122,
      124,
      126,
      127,
      129,
      130,
      131,
      132,
      133,
      134,
      135,
      136,
      137,
      142,
      143,
      144,
      146,
      150,
      151,
      152,
      153,
      155,
      156
    ],
    "country_iso3": "BES"
  },
  {
    "name": "Andrea I (23)",
    "lat": "12.1879",
    "lng": "-68.2972",
    "averageMaxDepth": "20",
    "averageDivetime": "52",
    "averageVis": "23",
    "level": [
      "beginner"
    ],
    "wildlife": [
      81,
      92,
      93,
      98,
      99,
      100,
      115,
      116,
      121,
      122,
      124,
      126,
      127,
      129,
      130,
      131,
      132,
      133,
      134,
      135,
      136,
      142,
      143,
      144,
      146,
      150,
      151,
      152,
      153,
      155
    ],
    "country_iso3": "BES"
  },
  {
    "name": "Chez Hines (39)",
    "lat": "12.1178",
    "lng": "-68.2947",
    "averageMaxDepth": "19",
    "averageDivetime": "52",
    "averageVis": "22",
    "level": [
      "beginner"
    ],
    "wildlife": [],
    "country_iso3": "BES"
  },
  {
    "name": "Punt Vierkant (41)",
    "lat": "12.1093",
    "lng": "-68.2925",
    "averageMaxDepth": "19",
    "averageDivetime": "53",
    "averageVis": "21",
    "level": [
      "beginner"
    ],
    "wildlife": [],
    "country_iso3": "BES"
  },
  {
    "name": "White Slave",
    "lat": "12.0561",
    "lng": "-68.2818",
    "averageMaxDepth": "20",
    "averageDivetime": "51",
    "averageVis": "24",
    "level": [
      "beginner",
      "advanced",
      "expert"
    ],
    "wildlife": [],
    "country_iso3": "BES"
  },
  {
    "name": "Ebo\u2019s Reef (B)",
    "lat": "12.1672",
    "lng": "-68.3001",
    "averageMaxDepth": "20",
    "averageDivetime": "55",
    "averageVis": "23",
    "level": [
      "beginner"
    ],
    "wildlife": [],
    "country_iso3": "BES"
  },
  {
    "name": "Joanne\u2019s Sunchi (J)",
    "lat": "12.1490",
    "lng": "-68.3135",
    "averageMaxDepth": "19",
    "averageDivetime": "57",
    "averageVis": "23",
    "level": [
      "beginner"
    ],
    "wildlife": [],
    "country_iso3": "BES"
  },
  {
    "name": "Playa Daaibooi",
    "lat": "12.2119",
    "lng": "-69.0866",
    "averageMaxDepth": "17",
    "averageDivetime": "51",
    "averageVis": "22",
    "level": [
      "beginner"
    ],
    "wildlife": [
      81,
      90,
      92,
      93,
      97,
      98,
      100,
      115,
      116,
      122,
      124,
      126,
      127,
      129,
      130,
      131,
      132,
      133,
      134,
      135,
      136,
      137,
      138,
      141,
      142,
      143,
      144,
      146,
      150,
      151,
      152,
      153,
      155,
      156
    ],
    "country_iso3": "CUW"
  },
  {
    "name": "Fuikbaai / Newport",
    "lat": "12.0474",
    "lng": "-68.8297",
    "averageMaxDepth": "20",
    "averageDivetime": "51",
    "averageVis": "22",
    "level": [
      "beginner",
      "advanced",
      "expert"
    ],
    "wildlife": [],
    "country_iso3": "CUW"
  },
  {
    "name": "Klein Cura\u00e7ao",
    "lat": "11.9871",
    "lng": "-68.6467",
    "averageMaxDepth": "20",
    "averageDivetime": "50",
    "averageVis": "26",
    "level": [
      "beginner",
      "advanced"
    ],
    "wildlife": [
      81,
      98,
      100,
      115,
      116,
      121,
      122,
      124,
      125,
      126,
      127,
      129,
      130,
      131,
      132,
      133,
      134,
      135,
      136,
      137,
      138,
      139,
      142,
      143,
      146,
      148,
      150,
      151,
      153,
      155,
      156
    ],
    "country_iso3": "CUW"
  },
  {
    "name": "Playa Jeremi",
    "lat": "12.3288",
    "lng": "-69.1513",
    "averageMaxDepth": "21",
    "averageDivetime": "56",
    "averageVis": "24",
    "level": [
      "beginner",
      "advanced"
    ],
    "wildlife": [],
    "country_iso3": "CUW"
  },
  {
    "name": "Watamula",
    "lat": "12.3840",
    "lng": "-69.1655",
    "averageMaxDepth": "18",
    "averageDivetime": "57",
    "averageVis": "23",
    "level": [
      "beginner",
      "advanced"
    ],
    "wildlife": [
      92,
      93,
      98,
      100,
      115,
      116,
      118,
      121,
      122,
      124,
      126,
      127,
      129,
      130,
      131,
      132,
      133,
      134,
      135,
      136,
      137,
      138,
      142,
      143,
      146,
      148,
      153,
      155,
      156
    ],
    "country_iso3": "CUW"
  },
  {
    "name": "Le Bugalet",
    "lat": "47.5373",
    "lng": "-3.0806",
    "averageMaxDepth": "14",
    "averageDivetime": "49",
    "averageVis": "4",
    "level": [
      "beginner",
      "advanced",
      "expert"
    ],
    "wildlife": [
      115,
      119,
      136,
      150,
      152,
      153,
      155,
      156,
      275,
      281
    ],
    "country_iso3": "FRA"
  },
  {
    "name": "\u00dcberlingen - Liebesinsel",
    "lat": "47.7618",
    "lng": "9.1686",
    "averageMaxDepth": "30",
    "averageDivetime": "44",
    "averageVis": "9",
    "level": [
      "expert"
    ],
    "wildlife": [],
    "country_iso3": "DEU"
  },
  {
    "name": "\u00dcberlingen - Post",
    "lat": "47.7641",
    "lng": "9.1629",
    "averageMaxDepth": "34",
    "averageDivetime": "45",
    "averageVis": "11",
    "level": [
      "advanced",
      "expert"
    ],
    "wildlife": [
      21,
      23,
      24,
      27,
      232,
      255,
      256,
      257,
      258
    ],
    "country_iso3": "DEU"
  },
  {
    "name": "Walchensee, Galerie",
    "lat": "47.6053",
    "lng": "11.3347",
    "averageMaxDepth": "36",
    "averageDivetime": "45",
    "averageVis": "10",
    "level": [
      "advanced",
      "expert"
    ],
    "wildlife": [
      21,
      22,
      24,
      25,
      27,
      28
    ],
    "country_iso3": "DEU"
  },
  {
    "name": "Monte Mare, Rheinbach",
    "lat": "50.6192",
    "lng": "6.9341",
    "averageMaxDepth": "9",
    "averageDivetime": "41",
    "averageVis": "18",
    "level": [
      "beginner"
    ],
    "wildlife": [],
    "country_iso3": "DEU"
  },
  {
    "name": "Coral Garden / Gassous Bay",
    "lat": "26.5730",
    "lng": "34.0314",
    "averageMaxDepth": "20",
    "averageDivetime": "56",
    "averageVis": "18",
    "level": [
      "beginner",
      "advanced"
    ],
    "wildlife": [
      55,
      92,
      93,
      98,
      100,
      109,
      115,
      116,
      117,
      121,
      122,
      123,
      124,
      125,
      126,
      127,
      128,
      129,
      130,
      131,
      132,
      133,
      134,
      136,
      137,
      138,
      139,
      140,
      141,
      142,
      143,
      144,
      145,
      147,
      150,
      151,
      152,
      153,
      156,
      264,
      277,
      283,
      284,
      285,
      286
    ],
    "country_iso3": "EGY"
  },
  {
    "name": "Kitzeberg",
    "lat": "54.3635",
    "lng": "10.1872",
    "averageMaxDepth": "6",
    "averageDivetime": "40",
    "averageVis": "3",
    "level": [
      "beginner",
      "advanced"
    ],
    "wildlife": [],
    "country_iso3": "DEU"
  },
  {
    "name": "Veradero Beach",
    "lat": "23.1500",
    "lng": "-81.2667",
    "averageMaxDepth": "15",
    "averageDivetime": "47",
    "averageVis": "19",
    "level": [
      "beginner"
    ],
    "wildlife": [
      80,
      81,
      84,
      93,
      98,
      99,
      100,
      115,
      116,
      121,
      122,
      124,
      126,
      127,
      129,
      130,
      131,
      132,
      133,
      134,
      135,
      136,
      137,
      138,
      142,
      143,
      146,
      153,
      155,
      156
    ],
    "country_iso3": "CUB"
  },
  {
    "name": "Chesapeake Light Tower",
    "lat": "36.7830",
    "lng": "-75.7600",
    "averageMaxDepth": "16",
    "averageDivetime": "31",
    "averageVis": "8",
    "level": [
      "beginner"
    ],
    "wildlife": [
      95,
      148
    ],
    "country_iso3": "USA"
  },
  {
    "name": "Brass Spike",
    "lat": "36.8558",
    "lng": "-75.9743",
    "averageMaxDepth": "19",
    "averageDivetime": "28",
    "averageVis": "6",
    "level": [
      "advanced"
    ],
    "wildlife": [],
    "country_iso3": "USA"
  },
  {
    "name": "Marsa Shouna",
    "lat": "25.4681",
    "lng": "34.6824",
    "averageMaxDepth": "18",
    "averageDivetime": "55",
    "averageVis": "18",
    "level": [
      "beginner"
    ],
    "wildlife": [
      93
    ],
    "country_iso3": "EGY"
  },
  {
    "name": "Marsa Gabal el Rosas (Ducks center)",
    "lat": "25.2059",
    "lng": "34.8092",
    "averageMaxDepth": "17",
    "averageDivetime": "52",
    "averageVis": "16",
    "level": [
      "beginner",
      "advanced",
      "expert"
    ],
    "wildlife": [
      54,
      55,
      56,
      57,
      58,
      80,
      92,
      93,
      94,
      96,
      98,
      100,
      102,
      103,
      107,
      112,
      115,
      123,
      126,
      127,
      141,
      143,
      144
    ],
    "country_iso3": "EGY"
  },
  {
    "name": "White Bank",
    "lat": "-4.3299",
    "lng": "55.8134",
    "averageMaxDepth": "17",
    "averageDivetime": "49",
    "averageVis": "16",
    "level": [
      "advanced"
    ],
    "wildlife": [
      65,
      79,
      81,
      84,
      90,
      92,
      93,
      100,
      116,
      121,
      123,
      124
    ],
    "country_iso3": "SYC"
  },
  {
    "name": "Ave Maria",
    "lat": "-4.3279",
    "lng": "55.8172",
    "averageMaxDepth": "17",
    "averageDivetime": "51",
    "averageVis": "16",
    "level": [
      "beginner",
      "advanced"
    ],
    "wildlife": [
      81,
      84,
      115,
      126,
      132
    ],
    "country_iso3": "SYC"
  },
  {
    "name": "Fisherman's Cove Reef",
    "lat": "-4.6138",
    "lng": "55.4206",
    "averageMaxDepth": "14",
    "averageDivetime": "47",
    "averageVis": "12",
    "level": [
      "beginner"
    ],
    "wildlife": [
      100,
      112,
      116,
      121,
      122,
      125,
      127,
      129,
      130,
      131,
      132,
      134,
      136,
      137,
      138,
      142,
      143,
      144,
      146,
      147,
      150,
      153,
      155,
      156,
      275,
      285
    ],
    "country_iso3": "SYC"
  },
  {
    "name": "Rocher du Diamant",
    "lat": "14.4433",
    "lng": "-61.0394",
    "averageMaxDepth": "21",
    "averageDivetime": "51",
    "averageVis": "23",
    "level": [
      "beginner",
      "advanced",
      "expert"
    ],
    "wildlife": [
      55,
      70,
      92,
      93,
      94,
      98,
      100,
      101,
      103,
      108,
      121,
      122,
      124,
      126,
      127,
      128,
      132,
      137,
      141,
      144,
      146,
      150,
      151,
      153,
      155,
      156
    ],
    "country_iso3": "FRA"
  },
  {
    "name": "Lake Keowee",
    "lat": "34.8813",
    "lng": "-82.8617",
    "averageMaxDepth": "12",
    "averageDivetime": "29",
    "averageVis": "4",
    "level": [
      "beginner",
      "advanced"
    ],
    "wildlife": [
      21,
      23,
      24,
      27,
      28,
      232
    ],
    "country_iso3": "USA"
  },
  {
    "name": "Airplanes (Wreck)",
    "lat": "12.5040",
    "lng": "-70.0341",
    "averageMaxDepth": "22",
    "averageDivetime": "43",
    "averageVis": "18",
    "level": [
      "beginner",
      "advanced"
    ],
    "wildlife": [
      81,
      90,
      92,
      93,
      97,
      98,
      99,
      100,
      115,
      116,
      121,
      122,
      124,
      127,
      129,
      130,
      131,
      132,
      133,
      134,
      135,
      136,
      138,
      142,
      143,
      146,
      150,
      153,
      155,
      156
    ],
    "country_iso3": "ABW"
  },
  {
    "name": "Canyon, Dahab",
    "lat": "28.5539",
    "lng": "34.5216",
    "averageMaxDepth": "29",
    "averageDivetime": "48",
    "averageVis": "24",
    "level": [
      "advanced",
      "expert"
    ],
    "wildlife": [
      55,
      65,
      92,
      93,
      94,
      98,
      100,
      109,
      112,
      115,
      116,
      117,
      118,
      121,
      122,
      123,
      124,
      126,
      127,
      129,
      130,
      131,
      132,
      134,
      136,
      137,
      138,
      139,
      140,
      141,
      142,
      143,
      144,
      147,
      148,
      149,
      150,
      151,
      152,
      153,
      156,
      159
    ],
    "country_iso3": "EGY"
  },
  {
    "name": "Boschmolenplas",
    "lat": "51.1791",
    "lng": "5.8756",
    "averageMaxDepth": "14",
    "averageDivetime": "43",
    "averageVis": "5",
    "level": [
      "beginner",
      "advanced"
    ],
    "wildlife": [
      21,
      22,
      23,
      25,
      27,
      232,
      254
    ],
    "country_iso3": "NLD"
  },
  {
    "name": "The Blue Grotto",
    "lat": "29.3873",
    "lng": "-82.4865",
    "averageMaxDepth": "17",
    "averageDivetime": "29",
    "averageVis": "13",
    "level": [
      "beginner",
      "advanced",
      "expert"
    ],
    "wildlife": [
      28,
      33,
      39
    ],
    "country_iso3": "USA"
  },
  {
    "name": "USS Oriskany Wreck, Pensacola, Florida",
    "lat": "29.9657",
    "lng": "-87.2661",
    "averageMaxDepth": "37",
    "averageDivetime": "31",
    "averageVis": "19",
    "level": [
      "advanced",
      "expert"
    ],
    "wildlife": [],
    "country_iso3": "USA"
  },
  {
    "name": "Ginnie Springs",
    "lat": "29.8360",
    "lng": "-82.7000",
    "averageMaxDepth": "14",
    "averageDivetime": "34",
    "averageVis": "22",
    "level": [
      "advanced",
      "expert"
    ],
    "wildlife": [
      21,
      28,
      33,
      36,
      39,
      40,
      42
    ],
    "country_iso3": "USA"
  },
  {
    "name": "Singliser See",
    "lat": "51.0596",
    "lng": "9.3044",
    "averageMaxDepth": "10",
    "averageDivetime": "39",
    "averageVis": "4",
    "level": [
      "beginner",
      "advanced"
    ],
    "wildlife": [
      22,
      232
    ],
    "country_iso3": "DEU"
  },
  {
    "name": "Kandooma Thila",
    "lat": "3.9067",
    "lng": "73.4799",
    "averageMaxDepth": "28",
    "averageDivetime": "42",
    "averageVis": "19",
    "level": [
      "advanced",
      "expert"
    ],
    "wildlife": [
      54,
      58,
      65,
      67,
      70,
      71,
      73,
      79,
      80,
      81,
      84,
      90,
      91,
      92,
      93,
      96,
      98,
      100,
      101,
      115,
      116,
      121,
      122,
      123,
      124,
      125,
      126,
      127,
      129,
      130,
      131,
      132,
      133,
      134,
      135,
      136,
      137,
      138,
      139,
      141,
      142,
      143,
      144,
      146,
      147,
      148,
      149,
      150,
      153,
      156
    ],
    "country_iso3": "MDV"
  },
  {
    "name": "Whitestar Quarry",
    "lat": "41.3716",
    "lng": "-83.3155",
    "averageMaxDepth": "13",
    "averageDivetime": "30",
    "averageVis": "6",
    "level": [
      "beginner",
      "advanced"
    ],
    "wildlife": [
      21,
      27
    ],
    "country_iso3": "USA"
  },
  {
    "name": "Steinbruch Horka",
    "lat": "51.2629",
    "lng": "14.2474",
    "averageMaxDepth": "20",
    "averageDivetime": "38",
    "averageVis": "7",
    "level": [
      "beginner",
      "advanced",
      "expert"
    ],
    "wildlife": [
      21,
      22,
      27,
      232
    ],
    "country_iso3": "DEU"
  },
  {
    "name": "Middle Garden",
    "lat": "27.9129",
    "lng": "34.3506",
    "averageMaxDepth": "19",
    "averageDivetime": "47",
    "averageVis": "23",
    "level": [
      "beginner",
      "advanced",
      "expert"
    ],
    "wildlife": [
      65,
      79,
      92,
      93,
      94,
      98,
      100,
      112,
      115,
      116,
      122,
      123,
      126,
      127,
      132,
      134,
      136,
      137,
      143,
      147,
      150,
      151,
      152,
      153,
      156,
      157,
      275,
      283
    ],
    "country_iso3": "EGY"
  },
  {
    "name": "Ras Umm Sid",
    "lat": "27.8471",
    "lng": "34.3141",
    "averageMaxDepth": "23",
    "averageDivetime": "47",
    "averageVis": "25",
    "level": [
      "beginner",
      "advanced",
      "expert"
    ],
    "wildlife": [
      65,
      79,
      90,
      92,
      98,
      116,
      121,
      122,
      123,
      124,
      125,
      126,
      127,
      129,
      130,
      131,
      132,
      133,
      134,
      135,
      136,
      137,
      138,
      139,
      140,
      141,
      142,
      143,
      144,
      145,
      146,
      147,
      149,
      150,
      151,
      153
    ],
    "country_iso3": "EGY"
  },
  {
    "name": "Napoli",
    "lat": "35.4568",
    "lng": "11.0679",
    "averageMaxDepth": "13",
    "averageDivetime": "51",
    "averageVis": "15",
    "level": [
      "beginner",
      "advanced"
    ],
    "wildlife": [
      115,
      116,
      136,
      137,
      138,
      277,
      281
    ],
    "country_iso3": "TUN"
  },
  {
    "name": "Vitznau,Seebad (Gummiberg)",
    "lat": "47.0070",
    "lng": "8.4827",
    "averageMaxDepth": "21",
    "averageDivetime": "41",
    "averageVis": "7",
    "level": [
      "advanced"
    ],
    "wildlife": [
      21,
      22,
      256
    ],
    "country_iso3": "CHE"
  },
  {
    "name": "Rheinau Felsen",
    "lat": "47.6433",
    "lng": "8.5960",
    "averageMaxDepth": "13",
    "averageDivetime": "45",
    "averageVis": "13",
    "level": [
      "beginner",
      "advanced"
    ],
    "wildlife": [
      21,
      22,
      23,
      25,
      28,
      254
    ],
    "country_iso3": "CHE"
  },
  {
    "name": "Zwembad Groenendaal",
    "lat": "52.3379",
    "lng": "4.6258",
    "averageMaxDepth": "3",
    "averageDivetime": "55",
    "averageVis": "23",
    "level": [
      "beginner"
    ],
    "wildlife": [],
    "country_iso3": "NLD"
  },
  {
    "name": "L\u00e4ngenschachen",
    "lat": "46.7207",
    "lng": "7.6851",
    "averageMaxDepth": "15",
    "averageDivetime": "41",
    "averageVis": "5",
    "level": [
      "beginner"
    ],
    "wildlife": [
      21,
      22
    ],
    "country_iso3": "CHE"
  },
  {
    "name": "Blausee",
    "lat": "46.5325",
    "lng": "7.6644",
    "averageMaxDepth": "9",
    "averageDivetime": "41",
    "averageVis": "9",
    "level": [
      "beginner",
      "advanced"
    ],
    "wildlife": [
      24
    ],
    "country_iso3": "CHE"
  },
  {
    "name": "White Knight",
    "lat": "27.9602",
    "lng": "34.3986",
    "averageMaxDepth": "20",
    "averageDivetime": "44",
    "averageVis": "24",
    "level": [
      "beginner",
      "advanced"
    ],
    "wildlife": [
      55,
      65,
      90,
      92,
      93,
      94,
      95,
      98,
      100,
      112,
      115,
      116,
      117,
      121,
      122,
      123,
      125,
      126,
      127,
      129,
      130,
      131,
      132,
      134,
      135,
      136,
      137,
      138,
      139,
      141,
      143,
      144,
      147,
      149,
      150,
      151,
      153,
      275,
      277,
      283,
      285
    ],
    "country_iso3": "EGY"
  },
  {
    "name": "Ras Katy",
    "lat": "27.8469",
    "lng": "34.3038",
    "averageMaxDepth": "21",
    "averageDivetime": "47",
    "averageVis": "26",
    "level": [],
    "wildlife": [
      79,
      90,
      92,
      93,
      94,
      96,
      98,
      115,
      116,
      121,
      122,
      123,
      126,
      127,
      132,
      134,
      136,
      137,
      143,
      144,
      147,
      150,
      153
    ],
    "country_iso3": "EGY"
  },
  {
    "name": "Olympia Regattaanlage Oberschlei\u00dfheim",
    "lat": "48.2493",
    "lng": "11.5240",
    "averageMaxDepth": "4",
    "averageDivetime": "43",
    "averageVis": "8",
    "level": [
      "beginner"
    ],
    "wildlife": [
      22,
      23,
      24,
      25,
      27,
      28,
      254
    ],
    "country_iso3": "DEU"
  },
  {
    "name": "Silbersee, Niedernberg",
    "lat": "49.9016",
    "lng": "9.1323",
    "averageMaxDepth": "6",
    "averageDivetime": "35",
    "averageVis": "2",
    "level": [
      "beginner"
    ],
    "wildlife": [
      21,
      22,
      23,
      25,
      27,
      28,
      232
    ],
    "country_iso3": "DEU"
  },
  {
    "name": "Le Village",
    "lat": "43.4101",
    "lng": "6.8463",
    "averageMaxDepth": "21",
    "averageDivetime": "42",
    "averageVis": "22",
    "level": [
      "beginner"
    ],
    "wildlife": [
      115,
      116,
      126,
      133,
      150,
      152
    ],
    "country_iso3": "FRA"
  },
  {
    "name": "Hollywood Bowl",
    "lat": "25.0334",
    "lng": "-77.5720",
    "averageMaxDepth": "13",
    "averageDivetime": "44",
    "averageVis": "20",
    "level": [
      "beginner"
    ],
    "wildlife": [
      80,
      81,
      84,
      92,
      93,
      98,
      99,
      100,
      115,
      116,
      121,
      122,
      124,
      126,
      127,
      129,
      130,
      131,
      132,
      133,
      134,
      135,
      136,
      137,
      138,
      142,
      143,
      144,
      146,
      153,
      155,
      156
    ],
    "country_iso3": "BHS"
  },
  {
    "name": "Tegernsee",
    "lat": "47.7135",
    "lng": "11.7413",
    "averageMaxDepth": "19",
    "averageDivetime": "39",
    "averageVis": "7",
    "level": [
      "beginner",
      "advanced"
    ],
    "wildlife": [
      21,
      22,
      23,
      24,
      27
    ],
    "country_iso3": "DEU"
  },
  {
    "name": "Carriere de Vodele\u00e9",
    "lat": "50.1658",
    "lng": "4.7273",
    "averageMaxDepth": "32",
    "averageDivetime": "42",
    "averageVis": "11",
    "level": [
      "beginner",
      "advanced",
      "expert"
    ],
    "wildlife": [
      22,
      23,
      27,
      35,
      232
    ],
    "country_iso3": "BEL"
  },
  {
    "name": "Alexander Springs",
    "lat": "29.0790",
    "lng": "-81.5758",
    "averageMaxDepth": "7",
    "averageDivetime": "28",
    "averageVis": "18",
    "level": [
      "beginner"
    ],
    "wildlife": [
      21,
      28,
      33,
      36,
      39,
      42
    ],
    "country_iso3": "USA"
  },
  {
    "name": "T\u00fcscherz Bahnhof, Bielersee",
    "lat": "47.1138",
    "lng": "7.1962",
    "averageMaxDepth": "25",
    "averageDivetime": "43",
    "averageVis": "5",
    "level": [
      "beginner",
      "advanced"
    ],
    "wildlife": [
      22,
      27,
      28,
      232
    ],
    "country_iso3": "CHE"
  },
  {
    "name": "Ras il-Hobz",
    "lat": "36.0166",
    "lng": "14.2798",
    "averageMaxDepth": "24",
    "averageDivetime": "49",
    "averageVis": "21",
    "level": [
      "beginner",
      "advanced",
      "expert"
    ],
    "wildlife": [
      115,
      116,
      125,
      126,
      132,
      137
    ],
    "country_iso3": "MLT"
  },
  {
    "name": "F\u00f6ttinger",
    "lat": "47.8412",
    "lng": "13.5458",
    "averageMaxDepth": "21",
    "averageDivetime": "30",
    "averageVis": "6",
    "level": [
      "beginner",
      "advanced"
    ],
    "wildlife": [
      22,
      27
    ],
    "country_iso3": "AUT"
  },
  {
    "name": "Walchensee",
    "lat": "47.5981",
    "lng": "11.3494",
    "averageMaxDepth": "23",
    "averageDivetime": "39",
    "averageVis": "7",
    "level": [
      "advanced",
      "expert"
    ],
    "wildlife": [
      21,
      22,
      24,
      25,
      27,
      28
    ],
    "country_iso3": "DEU"
  },
  {
    "name": "Walchensee, Steinbruch",
    "lat": "47.5734",
    "lng": "11.3546",
    "averageMaxDepth": "27",
    "averageDivetime": "36",
    "averageVis": "8",
    "level": [
      "advanced",
      "expert"
    ],
    "wildlife": [
      21,
      22,
      24,
      25,
      27,
      28
    ],
    "country_iso3": "DEU"
  },
  {
    "name": "Loch Low-Minn",
    "lat": "35.4809",
    "lng": "-84.5096",
    "averageMaxDepth": "12",
    "averageDivetime": "25",
    "averageVis": "7",
    "level": [
      "beginner",
      "advanced"
    ],
    "wildlife": [
      21,
      28
    ],
    "country_iso3": "USA"
  },
  {
    "name": "Wreck Etnea, Unije",
    "lat": "44.6353",
    "lng": "14.2290",
    "averageMaxDepth": "32",
    "averageDivetime": "46",
    "averageVis": "12",
    "level": [
      "advanced",
      "expert"
    ],
    "wildlife": [
      126
    ],
    "country_iso3": "HRV"
  },
  {
    "name": "Urfeld",
    "lat": "47.6167",
    "lng": "11.3463",
    "averageMaxDepth": "27",
    "averageDivetime": "39",
    "averageVis": "12",
    "level": [
      "advanced",
      "expert"
    ],
    "wildlife": [
      21,
      22,
      24,
      25,
      27,
      28
    ],
    "country_iso3": "DEU"
  },
  {
    "name": "Langwieder See",
    "lat": "48.1985",
    "lng": "11.4128",
    "averageMaxDepth": "7",
    "averageDivetime": "37",
    "averageVis": "3",
    "level": [
      "beginner"
    ],
    "wildlife": [
      21,
      22
    ],
    "country_iso3": "DEU"
  },
  {
    "name": "Walchensee, Walchenseebucht / Radlbucht",
    "lat": "47.5843",
    "lng": "11.3101",
    "averageMaxDepth": "14",
    "averageDivetime": "44",
    "averageVis": "6",
    "level": [
      "advanced",
      "expert"
    ],
    "wildlife": [
      21,
      22,
      24,
      25,
      27,
      28
    ],
    "country_iso3": "DEU"
  },
  {
    "name": "Franata",
    "lat": "44.2337",
    "lng": "8.4466",
    "averageMaxDepth": "21",
    "averageDivetime": "45",
    "averageVis": "14",
    "level": [
      "beginner",
      "expert"
    ],
    "wildlife": [
      114,
      115,
      116,
      119,
      124,
      125,
      126,
      128,
      129,
      136,
      137,
      138,
      139,
      140,
      150,
      152,
      153,
      154,
      155,
      156,
      162,
      279
    ],
    "country_iso3": "ITA"
  },
  {
    "name": "Pefkari House Reef",
    "lat": "40.6170",
    "lng": "24.5969",
    "averageMaxDepth": "9",
    "averageDivetime": "47",
    "averageVis": "11",
    "level": [
      "beginner"
    ],
    "wildlife": [
      116,
      126,
      129,
      132,
      136,
      150,
      152,
      153,
      156
    ],
    "country_iso3": "GRC"
  },
  {
    "name": "Hafen Mols",
    "lat": "47.1131",
    "lng": "9.2793",
    "averageMaxDepth": "20",
    "averageDivetime": "42",
    "averageVis": "6",
    "level": [
      "advanced"
    ],
    "wildlife": [
      22,
      25,
      27,
      28,
      232,
      257,
      260
    ],
    "country_iso3": "CHE"
  },
  {
    "name": "Kanonierka",
    "lat": "54.5914",
    "lng": "18.8034",
    "averageMaxDepth": "31",
    "averageDivetime": "34",
    "averageVis": "5",
    "level": [
      "beginner",
      "advanced"
    ],
    "wildlife": [
      62
    ],
    "country_iso3": "POL"
  },
  {
    "name": "Pretty In Pink",
    "lat": "2.9589",
    "lng": "73.5332",
    "averageMaxDepth": "23",
    "averageDivetime": "52",
    "averageVis": "18",
    "level": [
      "beginner",
      "advanced",
      "expert"
    ],
    "wildlife": [
      115,
      116,
      121,
      122,
      123,
      127,
      129,
      130,
      131,
      132,
      133,
      134,
      135,
      136,
      137,
      138,
      147,
      149,
      150,
      153,
      155
    ],
    "country_iso3": "MDV"
  },
  {
    "name": "Simply The Best",
    "lat": "2.9454",
    "lng": "73.5465",
    "averageMaxDepth": "27",
    "averageDivetime": "54",
    "averageVis": "19",
    "level": [
      "advanced",
      "expert"
    ],
    "wildlife": [
      79,
      81,
      93,
      115,
      116,
      122,
      123,
      127,
      129,
      130,
      131,
      132,
      133,
      135,
      136,
      137,
      138,
      142,
      143,
      144,
      147,
      149
    ],
    "country_iso3": "MDV"
  },
  {
    "name": "1000 Rocks",
    "lat": "2.9498",
    "lng": "73.5228",
    "averageMaxDepth": "27",
    "averageDivetime": "46",
    "averageVis": "29",
    "level": [
      "beginner",
      "advanced",
      "expert"
    ],
    "wildlife": [
      116,
      122,
      124,
      127,
      129,
      130,
      131,
      132,
      134,
      136,
      138,
      139,
      150,
      153,
      156
    ],
    "country_iso3": "MDV"
  },
  {
    "name": "Matschelsee",
    "lat": "48.4057",
    "lng": "7.8152",
    "averageMaxDepth": "18",
    "averageDivetime": "44",
    "averageVis": "6",
    "level": [
      "beginner",
      "advanced"
    ],
    "wildlife": [
      22,
      27
    ],
    "country_iso3": "DEU"
  },
  {
    "name": "Gordon Reef",
    "lat": "27.9848",
    "lng": "34.4512",
    "averageMaxDepth": "21",
    "averageDivetime": "49",
    "averageVis": "25",
    "level": [
      "beginner",
      "advanced"
    ],
    "wildlife": [
      54,
      71,
      79,
      84,
      92,
      93,
      94,
      95,
      98,
      100,
      112,
      115,
      116,
      117,
      121,
      122,
      123,
      124,
      125,
      126,
      127,
      128,
      129,
      130,
      131,
      132,
      133,
      134,
      135,
      136,
      137,
      138,
      140,
      141,
      142,
      143,
      144,
      146,
      147,
      149,
      150,
      151,
      153,
      156,
      275,
      277,
      281,
      285
    ],
    "country_iso3": "EGY"
  },
  {
    "name": "Ras Bob",
    "lat": "27.9621",
    "lng": "34.4098",
    "averageMaxDepth": "21",
    "averageDivetime": "46",
    "averageVis": "25",
    "level": [
      "beginner",
      "advanced"
    ],
    "wildlife": [
      65,
      70,
      79,
      90,
      92,
      93,
      98,
      100,
      112,
      115,
      116,
      117,
      121,
      122,
      123,
      125,
      126,
      127,
      129,
      130,
      131,
      132,
      133,
      134,
      135,
      136,
      137,
      138,
      139,
      140,
      141,
      143,
      144,
      146,
      147,
      148,
      149,
      150,
      151,
      153,
      277,
      283,
      285
    ],
    "country_iso3": "EGY"
  },
  {
    "name": "Bimini Barge (Wreck)",
    "lat": "25.7361",
    "lng": "-79.3328",
    "averageMaxDepth": "17",
    "averageDivetime": "45",
    "averageVis": "18",
    "level": [
      "advanced"
    ],
    "wildlife": [
      93,
      115,
      124,
      125
    ],
    "country_iso3": "BHS"
  },
  {
    "name": "Davis Reef",
    "lat": "24.9317",
    "lng": "-80.4869",
    "averageMaxDepth": "10",
    "averageDivetime": "45",
    "averageVis": "15",
    "level": [
      "beginner"
    ],
    "wildlife": [
      55,
      81,
      92,
      93,
      98,
      99,
      115,
      116,
      122,
      124,
      127,
      129,
      131,
      132,
      134,
      135,
      136,
      137,
      138,
      142,
      143,
      144,
      146,
      153,
      155,
      156
    ],
    "country_iso3": "USA"
  },
  {
    "name": "Barleber Lake",
    "lat": "52.2189",
    "lng": "11.6562",
    "averageMaxDepth": "6",
    "averageDivetime": "47",
    "averageVis": "5",
    "level": [
      "advanced"
    ],
    "wildlife": [
      21,
      22,
      25
    ],
    "country_iso3": "DEU"
  },
  {
    "name": "Schlachtensee",
    "lat": "52.4460",
    "lng": "13.2233",
    "averageMaxDepth": "5",
    "averageDivetime": "39",
    "averageVis": "4",
    "level": [
      "beginner"
    ],
    "wildlife": [
      21,
      22,
      23,
      25,
      27,
      28,
      232
    ],
    "country_iso3": "DEU"
  },
  {
    "name": "CAYO NORTE",
    "lat": "10.7786",
    "lng": "-68.2009",
    "averageMaxDepth": "17",
    "averageDivetime": "49",
    "averageVis": "11",
    "level": [
      "advanced"
    ],
    "wildlife": [
      54,
      55,
      92,
      93,
      98,
      100,
      108,
      115,
      116,
      117,
      118,
      119,
      120,
      121,
      122,
      124,
      125,
      127,
      129,
      130,
      131,
      132,
      133,
      134,
      135,
      136,
      137,
      138,
      140,
      141,
      142,
      143,
      144,
      146,
      147,
      148,
      149,
      150,
      151,
      153,
      155,
      156,
      265,
      266
    ],
    "country_iso3": "VEN"
  },
  {
    "name": "Smith Cove",
    "lat": "19.2758",
    "lng": "-81.3932",
    "averageMaxDepth": "19",
    "averageDivetime": "46",
    "averageVis": "19",
    "level": [
      "beginner"
    ],
    "wildlife": [],
    "country_iso3": "CYM"
  },
  {
    "name": "Eagle Ray Rock",
    "lat": "19.2741",
    "lng": "-81.3952",
    "averageMaxDepth": "25",
    "averageDivetime": "44",
    "averageVis": "23",
    "level": [
      "beginner",
      "advanced"
    ],
    "wildlife": [],
    "country_iso3": "CYM"
  },
  {
    "name": "Laura's Reef",
    "lat": "19.2655",
    "lng": "-81.3625",
    "averageMaxDepth": "19",
    "averageDivetime": "48",
    "averageVis": "23",
    "level": [
      "beginner",
      "advanced"
    ],
    "wildlife": [
      81
    ],
    "country_iso3": "CYM"
  },
  {
    "name": "Molasses Reef",
    "lat": "25.0146",
    "lng": "-80.3781",
    "averageMaxDepth": "11",
    "averageDivetime": "46",
    "averageVis": "16",
    "level": [
      "beginner"
    ],
    "wildlife": [
      80,
      81,
      92,
      93,
      99,
      115,
      116,
      121,
      122,
      124,
      127,
      129,
      130,
      131,
      132,
      134,
      135,
      136,
      137,
      138,
      142,
      143,
      144,
      146,
      153,
      155,
      156,
      163
    ],
    "country_iso3": "USA"
  },
  {
    "name": "Bizeux",
    "lat": "48.6281",
    "lng": "-2.0276",
    "averageMaxDepth": "19",
    "averageDivetime": "35",
    "averageVis": "6",
    "level": [
      "beginner",
      "advanced",
      "expert"
    ],
    "wildlife": [
      116,
      119,
      153,
      155
    ],
    "country_iso3": "FRA"
  },
  {
    "name": "Anse Dufour",
    "lat": "14.5259",
    "lng": "-61.0925",
    "averageMaxDepth": "17",
    "averageDivetime": "52",
    "averageVis": "18",
    "level": [
      "beginner",
      "advanced"
    ],
    "wildlife": [
      93,
      98,
      115,
      116,
      121,
      122,
      130,
      132,
      137,
      143,
      144,
      146,
      150,
      153,
      155,
      156
    ],
    "country_iso3": "FRA"
  },
  {
    "name": "La Baleine",
    "lat": "14.5202",
    "lng": "-61.0972",
    "averageMaxDepth": "16",
    "averageDivetime": "52",
    "averageVis": "20",
    "level": [
      "beginner",
      "advanced"
    ],
    "wildlife": [
      100,
      116,
      121,
      137,
      140,
      143,
      144,
      146,
      153,
      156
    ],
    "country_iso3": "FRA"
  },
  {
    "name": "Les Jardins de Salomon",
    "lat": "14.5058",
    "lng": "-61.0956",
    "averageMaxDepth": "19",
    "averageDivetime": "55",
    "averageVis": "20",
    "level": [
      "beginner",
      "advanced"
    ],
    "wildlife": [
      98,
      116,
      121,
      122,
      129,
      130,
      131,
      132,
      136,
      137,
      140,
      144,
      146,
      150,
      153,
      156
    ],
    "country_iso3": "FRA"
  },
  {
    "name": "CAYO MEDIO",
    "lat": "10.7398",
    "lng": "-68.2364",
    "averageMaxDepth": "17",
    "averageDivetime": "45",
    "averageVis": "7",
    "level": [
      "beginner",
      "advanced"
    ],
    "wildlife": [
      93,
      98,
      100,
      117,
      118,
      120,
      121,
      122,
      124,
      127,
      130,
      131,
      132,
      134,
      137,
      138,
      140,
      142,
      143,
      144,
      146,
      147,
      149,
      151,
      155,
      156,
      157,
      158
    ],
    "country_iso3": "VEN"
  },
  {
    "name": "Stadtwaldsee",
    "lat": "53.1118",
    "lng": "8.8233",
    "averageMaxDepth": "7",
    "averageDivetime": "39",
    "averageVis": "3",
    "level": [
      "beginner",
      "advanced"
    ],
    "wildlife": [
      22,
      25,
      27,
      28,
      254
    ],
    "country_iso3": "DEU"
  },
  {
    "name": "Hepp\u2019s Pipeline",
    "lat": "19.2317",
    "lng": "-81.2498",
    "averageMaxDepth": "20",
    "averageDivetime": "48",
    "averageVis": "26",
    "level": [
      "beginner",
      "advanced"
    ],
    "wildlife": [
      115
    ],
    "country_iso3": "CYM"
  },
  {
    "name": "Ostseebad",
    "lat": "54.8128",
    "lng": "9.4304",
    "averageMaxDepth": "7",
    "averageDivetime": "44",
    "averageVis": "5",
    "level": [
      "beginner",
      "advanced"
    ],
    "wildlife": [],
    "country_iso3": "DEU"
  },
  {
    "name": "Woodhouse Reef",
    "lat": "28.0003",
    "lng": "34.4658",
    "averageMaxDepth": "26",
    "averageDivetime": "49",
    "averageVis": "26",
    "level": [
      "advanced"
    ],
    "wildlife": [
      55,
      65,
      70,
      79,
      83,
      84,
      90,
      92,
      93,
      94,
      98,
      100,
      112,
      115,
      116,
      117,
      121,
      122,
      123,
      124,
      125,
      126,
      127,
      129,
      130,
      131,
      132,
      133,
      134,
      135,
      136,
      137,
      138,
      139,
      140,
      141,
      142,
      143,
      144,
      145,
      146,
      147,
      149,
      150,
      151,
      153,
      275,
      283
    ],
    "country_iso3": "SAU"
  },
  {
    "name": "Temple",
    "lat": "27.8474",
    "lng": "34.3090",
    "averageMaxDepth": "20",
    "averageDivetime": "47",
    "averageVis": "25",
    "level": [
      "beginner",
      "advanced"
    ],
    "wildlife": [
      55,
      79,
      84,
      90,
      92,
      94,
      98,
      116,
      121,
      122,
      123,
      124,
      126,
      127,
      130,
      132,
      133,
      134,
      135,
      136,
      137,
      138,
      140,
      141,
      142,
      143,
      144,
      146,
      147,
      149,
      150,
      151,
      153,
      156
    ],
    "country_iso3": "EGY"
  },
  {
    "name": "Shark\u2019s Bay",
    "lat": "27.9509",
    "lng": "34.3857",
    "averageMaxDepth": "19",
    "averageDivetime": "44",
    "averageVis": "22",
    "level": [
      "beginner",
      "advanced"
    ],
    "wildlife": [
      89,
      90,
      91,
      92,
      93,
      94,
      95,
      98,
      99,
      100,
      112,
      115,
      116,
      118,
      119,
      121,
      122,
      123,
      124,
      125,
      126,
      127,
      129,
      130,
      131,
      132,
      133,
      134,
      135,
      136,
      137,
      138,
      139,
      140,
      141,
      142,
      143,
      144,
      145,
      146,
      147,
      148,
      150,
      151,
      152,
      153,
      155,
      159,
      281,
      285
    ],
    "country_iso3": "EGY"
  },
  {
    "name": "Blaarmeersen",
    "lat": "51.0444",
    "lng": "3.6843",
    "averageMaxDepth": "9",
    "averageDivetime": "38",
    "averageVis": "3",
    "level": [
      "beginner",
      "advanced"
    ],
    "wildlife": [],
    "country_iso3": "BEL"
  },
  {
    "name": "Seebr\u00fccke Haffkrug",
    "lat": "54.0516",
    "lng": "10.7534",
    "averageMaxDepth": "6",
    "averageDivetime": "44",
    "averageVis": "5",
    "level": [
      "beginner",
      "advanced"
    ],
    "wildlife": [
      148
    ],
    "country_iso3": "DEU"
  },
  {
    "name": "Achensee, Hechenberg",
    "lat": "47.4580",
    "lng": "11.7140",
    "averageMaxDepth": "35",
    "averageDivetime": "45",
    "averageVis": "8",
    "level": [
      "advanced",
      "expert"
    ],
    "wildlife": [
      21,
      27
    ],
    "country_iso3": "AUT"
  },
  {
    "name": "Fener-baba burnu",
    "lat": "36.8456",
    "lng": "30.7610",
    "averageMaxDepth": "16",
    "averageDivetime": "38",
    "averageVis": "17",
    "level": [
      "beginner",
      "advanced",
      "expert"
    ],
    "wildlife": [
      93,
      150
    ],
    "country_iso3": "TUR"
  },
  {
    "name": "Naama Bay",
    "lat": "27.9099",
    "lng": "34.3315",
    "averageMaxDepth": "15",
    "averageDivetime": "45",
    "averageVis": "21",
    "level": [
      "beginner",
      "advanced",
      "expert"
    ],
    "wildlife": [
      55,
      79,
      90,
      92,
      93,
      94,
      95,
      96,
      97,
      98,
      100,
      112,
      115,
      116,
      119,
      121,
      122,
      123,
      124,
      126,
      127,
      129,
      130,
      131,
      132,
      133,
      134,
      136,
      137,
      138,
      140,
      141,
      142,
      143,
      144,
      146,
      147,
      148,
      149,
      150,
      151,
      152,
      153,
      156
    ],
    "country_iso3": "EGY"
  },
  {
    "name": "Flughafen See",
    "lat": "52.5678",
    "lng": "13.2882",
    "averageMaxDepth": "11",
    "averageDivetime": "34",
    "averageVis": "4",
    "level": [
      "beginner"
    ],
    "wildlife": [
      21,
      22,
      23,
      27,
      28,
      232
    ],
    "country_iso3": "DEU"
  },
  {
    "name": "Brunnen, Eichwald",
    "lat": "46.9976",
    "lng": "8.5698",
    "averageMaxDepth": "15",
    "averageDivetime": "39",
    "averageVis": "6",
    "level": [
      "beginner",
      "advanced"
    ],
    "wildlife": [
      21,
      22,
      27,
      257
    ],
    "country_iso3": "CHE"
  },
  {
    "name": "Tobia Hamra",
    "lat": "26.8293",
    "lng": "33.9857",
    "averageMaxDepth": "17",
    "averageDivetime": "55",
    "averageVis": "22",
    "level": [
      "beginner",
      "advanced",
      "expert"
    ],
    "wildlife": [
      92,
      93,
      115,
      116,
      121,
      122,
      123,
      126,
      127,
      129,
      130,
      131,
      132,
      133,
      134,
      136,
      137,
      138,
      140,
      141,
      142,
      143,
      144,
      147,
      149,
      150
    ],
    "country_iso3": "EGY"
  },
  {
    "name": "Jezioro Lubikowskie",
    "lat": "52.5326",
    "lng": "15.6885",
    "averageMaxDepth": "9",
    "averageDivetime": "31",
    "averageVis": "4",
    "level": [
      "beginner",
      "advanced",
      "expert"
    ],
    "wildlife": [
      21,
      22,
      23,
      25,
      38,
      39,
      232
    ],
    "country_iso3": "POL"
  },
  {
    "name": "Fehmarn, Presen",
    "lat": "54.4785",
    "lng": "11.2481",
    "averageMaxDepth": "4",
    "averageDivetime": "39",
    "averageVis": "4",
    "level": [
      "beginner",
      "advanced"
    ],
    "wildlife": [
      148
    ],
    "country_iso3": "DEU"
  },
  {
    "name": "Caves, Cape Greco",
    "lat": "34.9636",
    "lng": "34.0731",
    "averageMaxDepth": "13",
    "averageDivetime": "46",
    "averageVis": "23",
    "level": [
      "beginner"
    ],
    "wildlife": [
      116,
      125,
      126,
      127,
      135,
      136,
      137,
      138,
      143,
      146,
      148
    ],
    "country_iso3": "CYP"
  },
  {
    "name": "Ha\u0144cza Parking 3",
    "lat": "54.2626",
    "lng": "22.8186",
    "averageMaxDepth": "19",
    "averageDivetime": "38",
    "averageVis": "6",
    "level": [
      "beginner",
      "advanced",
      "expert"
    ],
    "wildlife": [
      21,
      22
    ],
    "country_iso3": "POL"
  },
  {
    "name": "MiG-17 (Wreck)",
    "lat": "53.7214",
    "lng": "11.4611",
    "averageMaxDepth": "13",
    "averageDivetime": "27",
    "averageVis": "3",
    "level": [
      "beginner",
      "advanced"
    ],
    "wildlife": [
      21,
      22,
      25,
      27,
      232
    ],
    "country_iso3": "DEU"
  },
  {
    "name": "Kreidesee Hemmoor - Einstieg 4",
    "lat": "53.6970",
    "lng": "9.1347",
    "averageMaxDepth": "23",
    "averageDivetime": "43",
    "averageVis": "13",
    "level": [
      "beginner",
      "advanced"
    ],
    "wildlife": [
      21,
      24,
      27,
      29,
      254
    ],
    "country_iso3": "DEU"
  },
  {
    "name": "Kreidesee Hemmoor - Einstieg 5",
    "lat": "53.7013",
    "lng": "9.1335",
    "averageMaxDepth": "23",
    "averageDivetime": "45",
    "averageVis": "14",
    "level": [
      "beginner",
      "advanced"
    ],
    "wildlife": [
      21,
      24,
      27,
      29,
      254
    ],
    "country_iso3": "DEU"
  },
  {
    "name": "Timmendorfer Strand - Seebr\u00fccke",
    "lat": "53.9945",
    "lng": "10.7933",
    "averageMaxDepth": "6",
    "averageDivetime": "48",
    "averageVis": "4",
    "level": [
      "beginner",
      "advanced"
    ],
    "wildlife": [
      112,
      140,
      148,
      153,
      156,
      159
    ],
    "country_iso3": "DEU"
  },
  {
    "name": "Carriere de la Rochefontaine",
    "lat": "50.1831",
    "lng": "4.6411",
    "averageMaxDepth": "33",
    "averageDivetime": "42",
    "averageVis": "5",
    "level": [
      "beginner",
      "advanced",
      "expert"
    ],
    "wildlife": [
      23,
      24,
      25,
      27,
      35,
      232,
      254
    ],
    "country_iso3": "BEL"
  },
  {
    "name": "West Wall",
    "lat": "19.7604",
    "lng": "-70.5207",
    "averageMaxDepth": "18",
    "averageDivetime": "43",
    "averageVis": "14",
    "level": [
      "beginner"
    ],
    "wildlife": [
      81,
      92,
      93,
      98,
      99,
      100,
      114,
      115,
      116,
      118,
      121,
      122,
      124,
      126,
      127,
      129,
      130,
      131,
      132,
      133,
      134,
      135,
      136,
      137,
      142,
      143,
      146,
      153,
      155,
      156
    ],
    "country_iso3": "DOM"
  },
  {
    "name": "Pointe des sans culotte",
    "lat": "43.6841",
    "lng": "7.3051",
    "averageMaxDepth": "23",
    "averageDivetime": "42",
    "averageVis": "6",
    "level": [
      "beginner",
      "advanced",
      "expert"
    ],
    "wildlife": [
      115,
      116,
      124,
      126,
      136,
      137
    ],
    "country_iso3": "FRA"
  },
  {
    "name": "Playa Ancon",
    "lat": "21.7363",
    "lng": "-80.0126",
    "averageMaxDepth": "21",
    "averageDivetime": "47",
    "averageVis": "22",
    "level": [
      "beginner",
      "advanced"
    ],
    "wildlife": [
      93,
      98,
      99,
      100,
      116,
      124,
      127,
      129,
      131,
      136,
      137,
      153,
      155,
      156
    ],
    "country_iso3": "CUB"
  },
  {
    "name": "Jersleber Lake",
    "lat": "52.2363",
    "lng": "11.5813",
    "averageMaxDepth": "8",
    "averageDivetime": "38",
    "averageVis": "5",
    "level": [
      "beginner",
      "advanced"
    ],
    "wildlife": [
      22,
      23,
      25,
      27
    ],
    "country_iso3": "DEU"
  },
  {
    "name": "Rothsee, S\u00fcdufer",
    "lat": "49.2106",
    "lng": "11.1849",
    "averageMaxDepth": "6",
    "averageDivetime": "31",
    "averageVis": "3",
    "level": [
      "beginner",
      "advanced"
    ],
    "wildlife": [
      22,
      25,
      26,
      27
    ],
    "country_iso3": "DEU"
  },
  {
    "name": "Voglstangsee",
    "lat": "49.5046",
    "lng": "8.5415",
    "averageMaxDepth": "8",
    "averageDivetime": "42",
    "averageVis": "4",
    "level": [
      "beginner"
    ],
    "wildlife": [
      21,
      22,
      23,
      27,
      28,
      232,
      259,
      261
    ],
    "country_iso3": "DEU"
  },
  {
    "name": "El Shugarath",
    "lat": "28.3567",
    "lng": "34.4391",
    "averageMaxDepth": "29",
    "averageDivetime": "44",
    "averageVis": "25",
    "level": [
      "advanced"
    ],
    "wildlife": [
      55,
      65,
      70,
      92,
      93,
      94,
      98,
      100,
      112,
      115,
      116,
      117,
      121,
      122,
      123,
      124,
      126,
      127,
      129,
      130,
      131,
      132,
      133,
      136,
      137,
      138,
      139,
      140,
      141,
      142,
      143,
      144,
      147,
      148,
      149,
      150,
      153,
      156,
      159,
      275,
      281
    ],
    "country_iso3": "EGY"
  },
  {
    "name": "Stadtparksee",
    "lat": "53.5921",
    "lng": "10.0271",
    "averageMaxDepth": "3",
    "averageDivetime": "31",
    "averageVis": "2",
    "level": [
      "beginner",
      "advanced",
      "expert"
    ],
    "wildlife": [],
    "country_iso3": "DEU"
  },
  {
    "name": "Achziv Canyon \u05e7\u05e0\u05d9\u05d5\u05df \u05d0\u05db\u05d6\u05d9\u05d1",
    "lat": "33.0648",
    "lng": "35.0938",
    "averageMaxDepth": "11",
    "averageDivetime": "45",
    "averageVis": "10",
    "level": [
      "advanced"
    ],
    "wildlife": [
      86,
      92,
      93,
      98,
      115,
      116,
      127,
      129,
      133,
      135,
      136,
      137
    ],
    "country_iso3": "ISR"
  },
  {
    "name": "Balaton Trzebinia - Baza Nurkowa",
    "lat": "50.1642",
    "lng": "19.4634",
    "averageMaxDepth": "9",
    "averageDivetime": "44",
    "averageVis": "4",
    "level": [
      "beginner",
      "advanced"
    ],
    "wildlife": [
      21,
      22,
      23,
      25,
      27,
      28,
      35,
      254,
      259
    ],
    "country_iso3": "POL"
  },
  {
    "name": "Tollensesee / Neubrandenburg",
    "lat": "53.5324",
    "lng": "13.2470",
    "averageMaxDepth": "15",
    "averageDivetime": "36",
    "averageVis": "6",
    "level": [
      "beginner",
      "advanced"
    ],
    "wildlife": [
      22,
      27
    ],
    "country_iso3": "DEU"
  },
  {
    "name": "Al Kahfain (Wreck)",
    "lat": "26.6618",
    "lng": "34.0550",
    "averageMaxDepth": "22",
    "averageDivetime": "60",
    "averageVis": "23",
    "level": [
      "advanced",
      "expert"
    ],
    "wildlife": [
      92,
      93,
      115,
      121,
      122,
      123,
      124,
      126,
      127,
      129,
      130,
      131,
      132,
      133,
      134,
      136,
      137,
      138,
      139,
      140,
      141,
      142,
      143,
      144,
      147,
      149
    ],
    "country_iso3": "EGY"
  },
  {
    "name": "Black Jack Hole",
    "lat": "11.2935",
    "lng": "-60.4976",
    "averageMaxDepth": "20",
    "averageDivetime": "49",
    "averageVis": "26",
    "level": [
      "beginner"
    ],
    "wildlife": [],
    "country_iso3": "TTO"
  },
  {
    "name": "Schwimmbad im FEZ",
    "lat": "52.4615",
    "lng": "13.5480",
    "averageMaxDepth": "4",
    "averageDivetime": "52",
    "averageVis": "27",
    "level": [
      "beginner",
      "advanced",
      "expert"
    ],
    "wildlife": [],
    "country_iso3": "DEU"
  },
  {
    "name": "Ponte Brolla Orrido (Canyon)",
    "lat": "46.1866",
    "lng": "8.7549",
    "averageMaxDepth": "9",
    "averageDivetime": "40",
    "averageVis": "12",
    "level": [
      "beginner",
      "advanced",
      "expert"
    ],
    "wildlife": [
      24
    ],
    "country_iso3": "CHE"
  },
  {
    "name": "H2O Divng Academy Divesite",
    "lat": "47.8939",
    "lng": "17.1508",
    "averageMaxDepth": "14",
    "averageDivetime": "42",
    "averageVis": "4",
    "level": [
      "beginner",
      "advanced",
      "expert"
    ],
    "wildlife": [
      21,
      22,
      23,
      26,
      27,
      28,
      254
    ],
    "country_iso3": "HUN"
  },
  {
    "name": "Shaab Said",
    "lat": "28.3686",
    "lng": "34.4432",
    "averageMaxDepth": "20",
    "averageDivetime": "52",
    "averageVis": "24",
    "level": [
      "beginner",
      "advanced"
    ],
    "wildlife": [
      55,
      92,
      98,
      122,
      123,
      124,
      127,
      129,
      134,
      137,
      143,
      144,
      147
    ],
    "country_iso3": "EGY"
  },
  {
    "name": "Punta Perdiz",
    "lat": "22.0850",
    "lng": "-81.0765",
    "averageMaxDepth": "22",
    "averageDivetime": "48",
    "averageVis": "23",
    "level": [
      "beginner"
    ],
    "wildlife": [
      81,
      93,
      100,
      108,
      115,
      116,
      117,
      118,
      121,
      122,
      124,
      126,
      127,
      129,
      130,
      131,
      132,
      133,
      134,
      135,
      136,
      137,
      138,
      142,
      143,
      144,
      146,
      153,
      155,
      156
    ],
    "country_iso3": "CUB"
  },
  {
    "name": "Cayo Pescadores",
    "lat": "10.8699",
    "lng": "-68.2132",
    "averageMaxDepth": "15",
    "averageDivetime": "48",
    "averageVis": "6",
    "level": [
      "beginner",
      "advanced"
    ],
    "wildlife": [
      93,
      98,
      115,
      116,
      117,
      118,
      119,
      121,
      122,
      124,
      127,
      129,
      130,
      131,
      132,
      133,
      134,
      135,
      136,
      137,
      138,
      140,
      141,
      142,
      143,
      144,
      145,
      146,
      147,
      149,
      150,
      151,
      155,
      156,
      157,
      158
    ],
    "country_iso3": "VEN"
  },
  {
    "name": "Cap Salomon",
    "lat": "14.5075",
    "lng": "-61.1017",
    "averageMaxDepth": "22",
    "averageDivetime": "50",
    "averageVis": "19",
    "level": [
      "advanced",
      "expert"
    ],
    "wildlife": [
      92,
      100,
      115,
      116,
      121,
      122,
      124,
      129,
      131,
      132,
      136,
      137,
      140,
      142,
      143,
      144,
      146,
      150,
      152,
      153,
      155,
      156
    ],
    "country_iso3": "FRA"
  },
  {
    "name": "SOMBRERO",
    "lat": "10.8736",
    "lng": "-68.2055",
    "averageMaxDepth": "14",
    "averageDivetime": "46",
    "averageVis": "7",
    "level": [
      "beginner",
      "advanced"
    ],
    "wildlife": [
      115,
      117,
      118,
      121,
      122,
      127,
      129,
      130,
      131,
      133,
      134,
      135,
      136,
      137,
      138,
      140,
      141,
      142,
      143,
      144,
      145,
      146,
      147,
      149,
      150,
      151,
      156,
      157,
      158
    ],
    "country_iso3": "VEN"
  },
  {
    "name": "Navy Barges",
    "lat": "18.3100",
    "lng": "-64.9180",
    "averageMaxDepth": "15",
    "averageDivetime": "45",
    "averageVis": "18",
    "level": [
      "beginner"
    ],
    "wildlife": [
      81,
      93,
      98,
      116,
      122,
      124,
      129,
      132,
      136,
      137,
      143,
      144,
      146,
      148,
      150,
      155
    ],
    "country_iso3": "USA"
  },
  {
    "name": "Kamenjak",
    "lat": "45.0721",
    "lng": "14.7348",
    "averageMaxDepth": "21",
    "averageDivetime": "47",
    "averageVis": "13",
    "level": [
      "beginner",
      "advanced"
    ],
    "wildlife": [
      93,
      115,
      119,
      126,
      129,
      136,
      139,
      141,
      150,
      151,
      152,
      153,
      155,
      156
    ],
    "country_iso3": "HRV"
  },
  {
    "name": "Tuttenbrocksee",
    "lat": "51.7722",
    "lng": "8.0330",
    "averageMaxDepth": "9",
    "averageDivetime": "40",
    "averageVis": "5",
    "level": [
      "beginner",
      "advanced"
    ],
    "wildlife": [],
    "country_iso3": "DEU"
  },
  {
    "name": "The Bells",
    "lat": "28.5732",
    "lng": "34.5389",
    "averageMaxDepth": "29",
    "averageDivetime": "43",
    "averageVis": "25",
    "level": [
      "advanced",
      "expert"
    ],
    "wildlife": [
      55,
      65,
      92,
      93,
      100,
      112,
      116,
      121,
      122,
      123,
      124,
      126,
      127,
      129,
      130,
      131,
      132,
      133,
      134,
      136,
      137,
      138,
      139,
      140,
      141,
      142,
      143,
      144,
      147,
      149,
      150,
      151,
      153,
      156,
      159
    ],
    "country_iso3": "EGY"
  },
  {
    "name": "Paradise Reef",
    "lat": "19.3392",
    "lng": "-81.3899",
    "averageMaxDepth": "16",
    "averageDivetime": "49",
    "averageVis": "23",
    "level": [
      "beginner"
    ],
    "wildlife": [],
    "country_iso3": "CYM"
  },
  {
    "name": "Innerkip Quarry",
    "lat": "43.2015",
    "lng": "-80.6973",
    "averageMaxDepth": "8",
    "averageDivetime": "46",
    "averageVis": "5",
    "level": [
      "beginner"
    ],
    "wildlife": [
      21,
      22,
      24,
      27,
      28
    ],
    "country_iso3": "CAN"
  },
  {
    "name": "Niagara II (Wreck)",
    "lat": "45.2620",
    "lng": "-81.5996",
    "averageMaxDepth": "25",
    "averageDivetime": "32",
    "averageVis": "14",
    "level": [
      "advanced",
      "expert"
    ],
    "wildlife": [
      21,
      22,
      24,
      26,
      27
    ],
    "country_iso3": "CAN"
  },
  {
    "name": "Steckborn, Schulhaus",
    "lat": "47.6673",
    "lng": "8.9803",
    "averageMaxDepth": "14",
    "averageDivetime": "44",
    "averageVis": "6",
    "level": [
      "beginner"
    ],
    "wildlife": [
      22,
      23,
      25,
      26,
      27,
      28,
      232,
      259,
      260
    ],
    "country_iso3": "CHE"
  },
  {
    "name": "Shaab Samadai / Dolphin House",
    "lat": "24.9937",
    "lng": "34.9983",
    "averageMaxDepth": "19",
    "averageDivetime": "53",
    "averageVis": "23",
    "level": [
      "beginner"
    ],
    "wildlife": [
      55,
      58,
      79,
      93,
      106,
      116,
      122,
      123,
      126,
      127,
      141,
      143
    ],
    "country_iso3": "EGY"
  },
  {
    "name": "Banter See",
    "lat": "53.5082",
    "lng": "8.0878",
    "averageMaxDepth": "10",
    "averageDivetime": "40",
    "averageVis": "4",
    "level": [
      "beginner",
      "advanced"
    ],
    "wildlife": [
      148
    ],
    "country_iso3": "DEU"
  },
  {
    "name": "Allmannshausen Wintertauchplatz",
    "lat": "47.9348",
    "lng": "11.3346",
    "averageMaxDepth": "26",
    "averageDivetime": "39",
    "averageVis": "9",
    "level": [
      "beginner",
      "advanced"
    ],
    "wildlife": [
      21,
      22,
      25,
      27,
      232
    ],
    "country_iso3": "DEU"
  },
  {
    "name": "Ras Ghozlani",
    "lat": "27.7948",
    "lng": "34.2612",
    "averageMaxDepth": "23",
    "averageDivetime": "48",
    "averageVis": "26",
    "level": [
      "advanced"
    ],
    "wildlife": [
      79,
      92,
      93,
      94,
      98,
      99,
      115,
      116,
      119,
      121,
      122,
      123,
      124,
      126,
      127,
      132,
      134,
      136,
      137,
      138,
      140,
      141,
      142,
      143,
      144,
      147,
      150,
      153
    ],
    "country_iso3": "EGY"
  },
  {
    "name": "Wolfe Islander II (Wreck)",
    "lat": "44.2263",
    "lng": "-76.4199",
    "averageMaxDepth": "21",
    "averageDivetime": "35",
    "averageVis": "4",
    "level": [
      "beginner",
      "advanced"
    ],
    "wildlife": [
      21,
      22,
      26,
      27,
      28
    ],
    "country_iso3": "CAN"
  },
  {
    "name": "Sonnstein",
    "lat": "47.8324",
    "lng": "13.7866",
    "averageMaxDepth": "31",
    "averageDivetime": "47",
    "averageVis": "11",
    "level": [
      "advanced"
    ],
    "wildlife": [
      232
    ],
    "country_iso3": "AUT"
  },
  {
    "name": "Mille Roche Power House",
    "lat": "45.0144",
    "lng": "-74.7930",
    "averageMaxDepth": "18",
    "averageDivetime": "52",
    "averageVis": "4",
    "level": [
      "beginner"
    ],
    "wildlife": [
      21,
      22,
      25,
      26,
      27,
      28,
      39,
      232
    ],
    "country_iso3": "CAN"
  },
  {
    "name": "Unterwasserwald",
    "lat": "47.9238",
    "lng": "13.5812",
    "averageMaxDepth": "28",
    "averageDivetime": "44",
    "averageVis": "9",
    "level": [
      "advanced",
      "expert"
    ],
    "wildlife": [
      22,
      27
    ],
    "country_iso3": "AUT"
  },
  {
    "name": "Doc Poulson (Wreck)",
    "lat": "19.3605",
    "lng": "-81.3991",
    "averageMaxDepth": "21",
    "averageDivetime": "48",
    "averageVis": "26",
    "level": [
      "beginner",
      "advanced"
    ],
    "wildlife": [
      81,
      92,
      93,
      98,
      99,
      100,
      115,
      116,
      121,
      122,
      124,
      126,
      127,
      129,
      130,
      131,
      132,
      133,
      134,
      135,
      136,
      153,
      155,
      156
    ],
    "country_iso3": "CYM"
  },
  {
    "name": "Elphinstone Reef",
    "lat": "25.3096",
    "lng": "34.8604",
    "averageMaxDepth": "29",
    "averageDivetime": "51",
    "averageVis": "25",
    "level": [
      "advanced",
      "expert"
    ],
    "wildlife": [
      70,
      72,
      92,
      124,
      127,
      129,
      141
    ],
    "country_iso3": "EGY"
  },
  {
    "name": "Broder, Mols",
    "lat": "47.1143",
    "lng": "9.2715",
    "averageMaxDepth": "27",
    "averageDivetime": "43",
    "averageVis": "7",
    "level": [
      "beginner",
      "advanced"
    ],
    "wildlife": [
      21,
      22,
      24
    ],
    "country_iso3": "CHE"
  },
  {
    "name": "Ras Za`atar",
    "lat": "27.7651",
    "lng": "34.2561",
    "averageMaxDepth": "24",
    "averageDivetime": "49",
    "averageVis": "25",
    "level": [
      "advanced"
    ],
    "wildlife": [
      65,
      70,
      73,
      79,
      90,
      92,
      98,
      100,
      115,
      116,
      122,
      126,
      127,
      132,
      134,
      136,
      137,
      143,
      147,
      150,
      153
    ],
    "country_iso3": "EGY"
  },
  {
    "name": "Explorer Tour / Deep Trip/ 8 H\u00f6hlentour",
    "lat": "48.0128",
    "lng": "13.7960",
    "averageMaxDepth": "9",
    "averageDivetime": "50",
    "averageVis": "8",
    "level": [
      "beginner",
      "advanced"
    ],
    "wildlife": [
      21,
      22,
      23,
      24,
      25,
      27,
      232
    ],
    "country_iso3": "AUT"
  },
  {
    "name": "Grouper Hole",
    "lat": "21.8037",
    "lng": "-72.2000",
    "averageMaxDepth": "21",
    "averageDivetime": "43",
    "averageVis": "21",
    "level": [
      "beginner",
      "advanced"
    ],
    "wildlife": [
      156
    ],
    "country_iso3": "TCA"
  },
  {
    "name": "Inselrunde",
    "lat": "48.0125",
    "lng": "13.7954",
    "averageMaxDepth": "9",
    "averageDivetime": "45",
    "averageVis": "8",
    "level": [
      "beginner",
      "advanced"
    ],
    "wildlife": [
      21,
      22,
      23,
      24,
      25,
      27,
      232
    ],
    "country_iso3": "AUT"
  },
  {
    "name": "Spiegelpolderplas - Duiksteiger",
    "lat": "52.2766",
    "lng": "5.0672",
    "averageMaxDepth": "12",
    "averageDivetime": "52",
    "averageVis": "6",
    "level": [
      "beginner",
      "advanced"
    ],
    "wildlife": [],
    "country_iso3": "NLD"
  },
  {
    "name": "C\u00edrculo Militar do Paran\u00e1",
    "lat": "-25.3928",
    "lng": "-49.2398",
    "averageMaxDepth": "5",
    "averageDivetime": "82",
    "averageVis": "15",
    "level": [
      "beginner"
    ],
    "wildlife": [],
    "country_iso3": "BRA"
  },
  {
    "name": "Christina's Wall",
    "lat": "19.2615",
    "lng": "-81.3740",
    "averageMaxDepth": "24",
    "averageDivetime": "45",
    "averageVis": "21",
    "level": [
      "beginner",
      "advanced"
    ],
    "wildlife": [],
    "country_iso3": "CYM"
  },
  {
    "name": "Gary\u2019s Wall",
    "lat": "19.2637",
    "lng": "-81.3664",
    "averageMaxDepth": "20",
    "averageDivetime": "44",
    "averageVis": "24",
    "level": [
      "beginner",
      "advanced"
    ],
    "wildlife": [],
    "country_iso3": "CYM"
  },
  {
    "name": "Lakeview Lodge",
    "lat": "49.7734",
    "lng": "-86.5473",
    "averageMaxDepth": "6",
    "averageDivetime": "35",
    "averageVis": "5",
    "level": [
      "beginner"
    ],
    "wildlife": [
      21,
      22,
      26,
      27,
      28
    ],
    "country_iso3": "CAN"
  },
  {
    "name": "Parete Pierucci",
    "lat": "42.0505",
    "lng": "11.8144",
    "averageMaxDepth": "18",
    "averageDivetime": "42",
    "averageVis": "9",
    "level": [
      "beginner"
    ],
    "wildlife": [
      55,
      93,
      94,
      116,
      119,
      129,
      132,
      135,
      137,
      138,
      150,
      151,
      152,
      153,
      155,
      156
    ],
    "country_iso3": "ITA"
  },
  {
    "name": "Canaloni",
    "lat": "42.0588",
    "lng": "11.8071",
    "averageMaxDepth": "21",
    "averageDivetime": "46",
    "averageVis": "9",
    "level": [
      "beginner",
      "advanced"
    ],
    "wildlife": [
      94,
      115,
      116,
      119,
      129,
      138,
      150,
      151,
      152,
      153,
      155,
      156
    ],
    "country_iso3": "ITA"
  },
  {
    "name": "Berg (Wreck)",
    "lat": "47.9710",
    "lng": "11.3503",
    "averageMaxDepth": "26",
    "averageDivetime": "43",
    "averageVis": "9",
    "level": [
      "beginner",
      "advanced"
    ],
    "wildlife": [
      27
    ],
    "country_iso3": "DEU"
  },
  {
    "name": "Armchair Reef",
    "lat": "19.2795",
    "lng": "-81.3942",
    "averageMaxDepth": "19",
    "averageDivetime": "48",
    "averageVis": "25",
    "level": [
      "beginner",
      "advanced"
    ],
    "wildlife": [],
    "country_iso3": "CYM"
  },
  {
    "name": "Erlaufsee Schwabbelland",
    "lat": "47.7895",
    "lng": "15.2735",
    "averageMaxDepth": "14",
    "averageDivetime": "39",
    "averageVis": "6",
    "level": [
      "beginner",
      "advanced",
      "expert"
    ],
    "wildlife": [
      22,
      27,
      28,
      232
    ],
    "country_iso3": "AUT"
  },
  {
    "name": "Weissensee Ost Hausriff",
    "lat": "46.7025",
    "lng": "13.4090",
    "averageMaxDepth": "12",
    "averageDivetime": "41",
    "averageVis": "6",
    "level": [
      "beginner",
      "advanced"
    ],
    "wildlife": [
      21,
      22,
      23,
      27,
      254,
      259
    ],
    "country_iso3": "AUT"
  },
  {
    "name": "Relitto di Pomonte",
    "lat": "42.7436",
    "lng": "10.1193",
    "averageMaxDepth": "12",
    "averageDivetime": "52",
    "averageVis": "18",
    "level": [
      "beginner"
    ],
    "wildlife": [
      115,
      136,
      150
    ],
    "country_iso3": "ITA"
  },
  {
    "name": "Decorator Bay",
    "lat": "23.5213",
    "lng": "58.7497",
    "averageMaxDepth": "14",
    "averageDivetime": "51",
    "averageVis": "9",
    "level": [
      "beginner",
      "advanced",
      "expert"
    ],
    "wildlife": [
      92,
      93,
      96,
      98,
      100,
      112,
      115,
      116,
      118,
      121,
      122,
      123,
      124,
      126,
      127,
      129,
      130,
      132,
      134,
      135,
      137,
      138,
      142,
      143,
      144,
      146,
      148,
      149,
      153,
      155,
      281,
      286
    ],
    "country_iso3": "OMN"
  },
  {
    "name": "Cockle Shell Bay",
    "lat": "23.5303",
    "lng": "58.7277",
    "averageMaxDepth": "20",
    "averageDivetime": "52",
    "averageVis": "9",
    "level": [
      "beginner",
      "advanced",
      "expert"
    ],
    "wildlife": [
      98,
      100,
      115,
      116,
      118,
      121,
      122,
      123,
      124,
      126,
      127,
      129,
      130,
      132,
      135,
      137,
      138,
      142,
      143,
      144,
      148,
      149,
      150,
      152,
      275
    ],
    "country_iso3": "OMN"
  },
  {
    "name": "Carri\u00e8re de Barges",
    "lat": "50.5910",
    "lng": "3.3937",
    "averageMaxDepth": "29",
    "averageDivetime": "39",
    "averageVis": "4",
    "level": [
      "beginner",
      "advanced",
      "expert"
    ],
    "wildlife": [],
    "country_iso3": "BEL"
  },
  {
    "name": "Zijpe",
    "lat": "51.6514",
    "lng": "4.0973",
    "averageMaxDepth": "12",
    "averageDivetime": "44",
    "averageVis": "4",
    "level": [
      "advanced"
    ],
    "wildlife": [],
    "country_iso3": "NLD"
  },
  {
    "name": "AMC Amsterdam",
    "lat": "52.3871",
    "lng": "4.8446",
    "averageMaxDepth": "16",
    "averageDivetime": "22",
    "averageVis": "4",
    "level": [
      "beginner",
      "advanced"
    ],
    "wildlife": [],
    "country_iso3": "NLD"
  },
  {
    "name": "Rodina Wreck",
    "lat": "42.3649",
    "lng": "27.7899",
    "averageMaxDepth": "31",
    "averageDivetime": "36",
    "averageVis": "8",
    "level": [
      "advanced",
      "expert"
    ],
    "wildlife": [],
    "country_iso3": "BGR"
  },
  {
    "name": "Millardsville Quarry/Willow Springs",
    "lat": "40.3791",
    "lng": "-76.2679",
    "averageMaxDepth": "12",
    "averageDivetime": "32",
    "averageVis": "3",
    "level": [
      "beginner",
      "advanced"
    ],
    "wildlife": [
      21,
      24,
      25,
      27,
      28
    ],
    "country_iso3": "USA"
  },
  {
    "name": "JMR Rock Quarry - Yanceyville",
    "lat": "36.4506",
    "lng": "-79.2414",
    "averageMaxDepth": "17",
    "averageDivetime": "32",
    "averageVis": "5",
    "level": [
      "beginner",
      "advanced"
    ],
    "wildlife": [
      21,
      27,
      28,
      269
    ],
    "country_iso3": "USA"
  },
  {
    "name": "Blue Pinnacles",
    "lat": "19.3938",
    "lng": "-81.3456",
    "averageMaxDepth": "21",
    "averageDivetime": "47",
    "averageVis": "28",
    "level": [
      "beginner",
      "advanced"
    ],
    "wildlife": [],
    "country_iso3": "CYM"
  },
  {
    "name": "Tauchbasis Thomsdorf, Carwitzer See",
    "lat": "53.2903",
    "lng": "13.4597",
    "averageMaxDepth": "9",
    "averageDivetime": "37",
    "averageVis": "4",
    "level": [
      "beginner",
      "advanced"
    ],
    "wildlife": [
      22,
      23,
      25,
      27,
      28,
      232
    ],
    "country_iso3": "DEU"
  },
  {
    "name": "Schoolhouse Reef",
    "lat": "19.2355",
    "lng": "-81.2422",
    "averageMaxDepth": "14",
    "averageDivetime": "42",
    "averageVis": "20",
    "level": [
      "beginner"
    ],
    "wildlife": [
      275
    ],
    "country_iso3": "CYM"
  },
  {
    "name": "Three Pools",
    "lat": "28.4349",
    "lng": "34.4577",
    "averageMaxDepth": "21",
    "averageDivetime": "48",
    "averageVis": "21",
    "level": [
      "beginner",
      "advanced"
    ],
    "wildlife": [
      93,
      100,
      126,
      132,
      143,
      151,
      153,
      156,
      159,
      266,
      285
    ],
    "country_iso3": "EGY"
  },
  {
    "name": "Obersee",
    "lat": "52.7608",
    "lng": "13.5577",
    "averageMaxDepth": "6",
    "averageDivetime": "40",
    "averageVis": "2",
    "level": [
      "beginner"
    ],
    "wildlife": [
      22,
      23,
      25,
      27,
      232
    ],
    "country_iso3": "DEU"
  },
  {
    "name": "9 Mile Coral Tree",
    "lat": "-27.5750",
    "lng": "32.7224",
    "averageMaxDepth": "20",
    "averageDivetime": "53",
    "averageVis": "19",
    "level": [
      "advanced"
    ],
    "wildlife": [
      126
    ],
    "country_iso3": "ZAF"
  },
  {
    "name": "Quebra-mar",
    "lat": "-12.9603",
    "lng": "-38.5170",
    "averageMaxDepth": "8",
    "averageDivetime": "40",
    "averageVis": "7",
    "level": [
      "beginner"
    ],
    "wildlife": [],
    "country_iso3": "BRA"
  },
  {
    "name": "Vassilios T., wreck",
    "lat": "43.0068",
    "lng": "16.0664",
    "averageMaxDepth": "35",
    "averageDivetime": "45",
    "averageVis": "21",
    "level": [
      "advanced",
      "expert"
    ],
    "wildlife": [
      94,
      116,
      126,
      136,
      138,
      150,
      154,
      155
    ],
    "country_iso3": "HRV"
  },
  {
    "name": "Brougier Park Unterwilen",
    "lat": "47.0195",
    "lng": "8.4705",
    "averageMaxDepth": "28",
    "averageDivetime": "48",
    "averageVis": "8",
    "level": [
      "advanced",
      "expert"
    ],
    "wildlife": [
      22,
      27
    ],
    "country_iso3": "CHE"
  },
  {
    "name": "Blankenburger See (Oldenburg)",
    "lat": "53.1476",
    "lng": "8.2784",
    "averageMaxDepth": "6",
    "averageDivetime": "43",
    "averageVis": "2",
    "level": [
      "beginner",
      "advanced"
    ],
    "wildlife": [
      22,
      23,
      25,
      27,
      232,
      254
    ],
    "country_iso3": "DEU"
  },
  {
    "name": "Abu Galawa Small",
    "lat": "24.2507",
    "lng": "35.5431",
    "averageMaxDepth": "18",
    "averageDivetime": "54",
    "averageVis": "22",
    "level": [
      "beginner",
      "advanced"
    ],
    "wildlife": [
      92,
      93,
      94,
      100,
      115,
      116,
      121,
      122,
      123,
      126,
      127,
      130,
      132,
      135,
      137,
      138,
      141,
      143,
      144,
      147,
      149,
      285
    ],
    "country_iso3": "EGY"
  },
  {
    "name": "Zandeiland 1",
    "lat": "52.2485",
    "lng": "4.9614",
    "averageMaxDepth": "14",
    "averageDivetime": "45",
    "averageVis": "7",
    "level": [
      "beginner",
      "advanced"
    ],
    "wildlife": [],
    "country_iso3": "NLD"
  },
  {
    "name": "Laguna de la Colgada",
    "lat": "38.9614",
    "lng": "-2.8775",
    "averageMaxDepth": "10",
    "averageDivetime": "46",
    "averageVis": "8",
    "level": [
      "beginner"
    ],
    "wildlife": [
      22,
      23,
      27
    ],
    "country_iso3": "ESP"
  },
  {
    "name": "Kleine Stelle",
    "lat": "51.5246",
    "lng": "3.9861",
    "averageMaxDepth": "22",
    "averageDivetime": "52",
    "averageVis": "4",
    "level": [
      "advanced"
    ],
    "wildlife": [],
    "country_iso3": "NLD"
  },
  {
    "name": "Cala Moli",
    "lat": "38.9299",
    "lng": "1.2322",
    "averageMaxDepth": "14",
    "averageDivetime": "42",
    "averageVis": "17",
    "level": [
      "beginner",
      "advanced",
      "expert"
    ],
    "wildlife": [
      93,
      124,
      153,
      156
    ],
    "country_iso3": "ESP"
  },
  {
    "name": "Don Pedro  (Wreck)",
    "lat": "38.8849",
    "lng": "1.4518",
    "averageMaxDepth": "35",
    "averageDivetime": "38",
    "averageVis": "16",
    "level": [
      "advanced",
      "expert"
    ],
    "wildlife": [
      54,
      124,
      126,
      139,
      150,
      153,
      154,
      155,
      156
    ],
    "country_iso3": "ESP"
  },
  {
    "name": "Destin East Jetty",
    "lat": "30.3834",
    "lng": "-86.5157",
    "averageMaxDepth": "15",
    "averageDivetime": "34",
    "averageVis": "9",
    "level": [
      "beginner"
    ],
    "wildlife": [
      93,
      98,
      100,
      115,
      121,
      129,
      131,
      136,
      137,
      143,
      153,
      155,
      156,
      163
    ],
    "country_iso3": "USA"
  },
  {
    "name": "Amager Strandpark - Havheksen",
    "lat": "55.6549",
    "lng": "12.6497",
    "averageMaxDepth": "4",
    "averageDivetime": "41",
    "averageVis": "5",
    "level": [
      "beginner"
    ],
    "wildlife": [
      153
    ],
    "country_iso3": "DNK"
  },
  {
    "name": "Coral Bowl",
    "lat": "18.2768",
    "lng": "-64.8885",
    "averageMaxDepth": "18",
    "averageDivetime": "47",
    "averageVis": "23",
    "level": [
      "advanced"
    ],
    "wildlife": [
      74,
      84,
      92,
      93,
      98,
      100,
      115,
      121,
      122,
      124,
      129,
      132,
      136,
      137,
      138,
      143,
      144,
      146,
      148,
      150,
      151,
      153,
      155
    ],
    "country_iso3": "USA"
  },
  {
    "name": "Cow Rock",
    "lat": "18.3039",
    "lng": "-64.8476",
    "averageMaxDepth": "14",
    "averageDivetime": "47",
    "averageVis": "19",
    "level": [
      "beginner",
      "advanced"
    ],
    "wildlife": [
      79,
      80,
      81,
      92,
      93,
      98,
      100,
      116,
      121,
      122,
      124,
      132,
      134,
      135,
      137,
      142,
      143,
      146,
      150,
      153,
      155
    ],
    "country_iso3": "USA"
  },
  {
    "name": "Stragglers' Reef",
    "lat": "18.3038",
    "lng": "-64.8360",
    "averageMaxDepth": "13",
    "averageDivetime": "46",
    "averageVis": "16",
    "level": [
      "beginner"
    ],
    "wildlife": [
      81,
      92,
      93,
      98,
      100,
      116,
      121,
      122,
      124,
      132,
      134,
      135,
      137,
      142,
      143,
      146,
      150,
      153,
      155
    ],
    "country_iso3": "USA"
  },
  {
    "name": "Ledges of Little St. James",
    "lat": "18.2983",
    "lng": "-64.8299",
    "averageMaxDepth": "13",
    "averageDivetime": "45",
    "averageVis": "17",
    "level": [
      "beginner"
    ],
    "wildlife": [
      81,
      92,
      93,
      98,
      100,
      113,
      115,
      116,
      121,
      124,
      134,
      135,
      137,
      142,
      143,
      146,
      148,
      150,
      153,
      155
    ],
    "country_iso3": "USA"
  },
  {
    "name": "French Cap Pinnacle",
    "lat": "18.1985",
    "lng": "-64.8397",
    "averageMaxDepth": "23",
    "averageDivetime": "41",
    "averageVis": "20",
    "level": [
      "advanced"
    ],
    "wildlife": [
      79,
      80,
      81,
      92,
      93,
      98,
      100,
      116,
      124,
      125,
      127,
      132,
      134,
      135,
      136,
      142,
      143,
      146,
      150,
      153,
      155
    ],
    "country_iso3": "USA"
  },
  {
    "name": "Ras Sawt",
    "lat": "25.6816",
    "lng": "56.2835",
    "averageMaxDepth": "13",
    "averageDivetime": "47",
    "averageVis": "7",
    "level": [
      "beginner",
      "advanced"
    ],
    "wildlife": [
      92,
      93,
      98,
      112,
      115,
      116,
      122,
      123,
      124,
      125,
      127,
      130,
      132,
      133,
      134,
      135,
      136,
      137,
      138,
      140,
      141,
      142,
      143,
      144,
      146,
      147,
      149,
      150,
      151,
      152,
      153,
      155,
      156,
      161
    ],
    "country_iso3": "OMN"
  },
  {
    "name": "Wandl",
    "lat": "47.7903",
    "lng": "13.4873",
    "averageMaxDepth": "24",
    "averageDivetime": "36",
    "averageVis": "7",
    "level": [
      "beginner",
      "advanced"
    ],
    "wildlife": [
      21,
      22,
      27
    ],
    "country_iso3": "AUT"
  },
  {
    "name": "Porto San Nicol\u00f2 - Riva del Garda",
    "lat": "45.8774",
    "lng": "10.8560",
    "averageMaxDepth": "27",
    "averageDivetime": "38",
    "averageVis": "7",
    "level": [
      "beginner",
      "advanced",
      "expert"
    ],
    "wildlife": [
      22,
      24,
      25,
      27,
      38
    ],
    "country_iso3": "ITA"
  },
  {
    "name": "Walchensee, Einsiedlbucht",
    "lat": "47.5715",
    "lng": "11.3087",
    "averageMaxDepth": "17",
    "averageDivetime": "38",
    "averageVis": "6",
    "level": [
      "advanced",
      "expert"
    ],
    "wildlife": [
      21,
      22,
      24,
      25,
      27,
      28
    ],
    "country_iso3": "DEU"
  },
  {
    "name": "Cavernas",
    "lat": "38.4729",
    "lng": "-9.1973",
    "averageMaxDepth": "19",
    "averageDivetime": "46",
    "averageVis": "13",
    "level": [
      "beginner"
    ],
    "wildlife": [
      136,
      150,
      152
    ],
    "country_iso3": "PRT"
  },
  {
    "name": "Kerkweg, Den Osse",
    "lat": "51.7429",
    "lng": "3.8796",
    "averageMaxDepth": "10",
    "averageDivetime": "46",
    "averageVis": "4",
    "level": [
      "beginner"
    ],
    "wildlife": [
      155,
      156
    ],
    "country_iso3": "NLD"
  },
  {
    "name": "Playa Kalki / Alice in Wonderland",
    "lat": "12.3748",
    "lng": "-69.1582",
    "averageMaxDepth": "20",
    "averageDivetime": "55",
    "averageVis": "22",
    "level": [
      "beginner"
    ],
    "wildlife": [
      92,
      98,
      100,
      108,
      113,
      115,
      116,
      121,
      122,
      124,
      126,
      127,
      129,
      130,
      132,
      133,
      134,
      135,
      136,
      137,
      138,
      142,
      143,
      146,
      148,
      150,
      151,
      153,
      155,
      156
    ],
    "country_iso3": "CUW"
  },
  {
    "name": "Westerveldse Kolk",
    "lat": "52.5390",
    "lng": "6.0785",
    "averageMaxDepth": "7",
    "averageDivetime": "43",
    "averageVis": "4",
    "level": [
      "beginner"
    ],
    "wildlife": [],
    "country_iso3": "NLD"
  },
  {
    "name": "Ostermade Pier",
    "lat": "54.3251",
    "lng": "11.0734",
    "averageMaxDepth": "5",
    "averageDivetime": "50",
    "averageVis": "5",
    "level": [
      "beginner"
    ],
    "wildlife": [
      148
    ],
    "country_iso3": "DEU"
  },
  {
    "name": "Mangrove Bay",
    "lat": "25.8697",
    "lng": "34.4198",
    "averageMaxDepth": "17",
    "averageDivetime": "56",
    "averageVis": "20",
    "level": [
      "beginner"
    ],
    "wildlife": [
      55,
      58,
      90,
      92,
      93,
      94,
      150,
      151,
      152,
      153,
      155,
      156
    ],
    "country_iso3": "EGY"
  },
  {
    "name": "Abu Sawatyr",
    "lat": "26.2059",
    "lng": "34.2209",
    "averageMaxDepth": "19",
    "averageDivetime": "50",
    "averageVis": "20",
    "level": [
      "beginner",
      "advanced"
    ],
    "wildlife": [
      54,
      79,
      92,
      94,
      100,
      112,
      115,
      116,
      121,
      122,
      123,
      124,
      126,
      127,
      129,
      130,
      131,
      132,
      133,
      137,
      138,
      139,
      141,
      142,
      143,
      144,
      147,
      149,
      150,
      151,
      152,
      153,
      264,
      275,
      283,
      284,
      285
    ],
    "country_iso3": "EGY"
  },
  {
    "name": "The Lighthouse",
    "lat": "28.4984",
    "lng": "34.5205",
    "averageMaxDepth": "20",
    "averageDivetime": "49",
    "averageVis": "21",
    "level": [
      "beginner",
      "advanced",
      "expert"
    ],
    "wildlife": [
      55,
      94,
      115,
      116,
      121,
      122,
      123,
      126,
      127,
      129,
      132,
      133,
      134,
      136,
      137,
      138,
      141,
      143,
      144,
      146,
      147,
      148,
      149,
      274,
      275,
      277,
      280,
      284,
      285
    ],
    "country_iso3": "EGY"
  },
  {
    "name": "Balboa (Wreck)",
    "lat": "19.2972",
    "lng": "-81.3864",
    "averageMaxDepth": "14",
    "averageDivetime": "52",
    "averageVis": "24",
    "level": [
      "beginner",
      "advanced",
      "expert"
    ],
    "wildlife": [],
    "country_iso3": "CYM"
  },
  {
    "name": "Paredes do Cabo",
    "lat": "38.4121",
    "lng": "-9.2160",
    "averageMaxDepth": "18",
    "averageDivetime": "41",
    "averageVis": "9",
    "level": [
      "beginner"
    ],
    "wildlife": [
      150
    ],
    "country_iso3": "PRT"
  },
  {
    "name": "Altare",
    "lat": "44.3051",
    "lng": "9.1980",
    "averageMaxDepth": "26",
    "averageDivetime": "48",
    "averageVis": "16",
    "level": [
      "beginner",
      "advanced",
      "expert"
    ],
    "wildlife": [
      55,
      112,
      115,
      117,
      119,
      121,
      124,
      134,
      154,
      155,
      156,
      157,
      163
    ],
    "country_iso3": "ITA"
  },
  {
    "name": "Scoglio del Raviolo",
    "lat": "44.3086",
    "lng": "9.1824",
    "averageMaxDepth": "28",
    "averageDivetime": "50",
    "averageVis": "17",
    "level": [
      "beginner",
      "advanced",
      "expert"
    ],
    "wildlife": [
      115,
      119,
      125,
      126,
      129,
      131,
      136,
      138,
      139,
      155,
      156
    ],
    "country_iso3": "ITA"
  },
  {
    "name": "Velo Kolo",
    "lat": "44.8363",
    "lng": "14.6844",
    "averageMaxDepth": "23",
    "averageDivetime": "46",
    "averageVis": "19",
    "level": [
      "beginner",
      "advanced",
      "expert"
    ],
    "wildlife": [
      54,
      55,
      108,
      119,
      126,
      136,
      137,
      138,
      139,
      150,
      151,
      152,
      153,
      154,
      155,
      156
    ],
    "country_iso3": "HRV"
  },
  {
    "name": "L\u2019Ilot",
    "lat": "-4.5602",
    "lng": "55.4307",
    "averageMaxDepth": "17",
    "averageDivetime": "46",
    "averageVis": "14",
    "level": [
      "advanced"
    ],
    "wildlife": [
      65,
      81,
      84,
      121,
      122
    ],
    "country_iso3": "SYC"
  },
  {
    "name": "Anse Petit Cour",
    "lat": "-4.3081",
    "lng": "55.7334",
    "averageMaxDepth": "15",
    "averageDivetime": "48",
    "averageVis": "12",
    "level": [
      "beginner"
    ],
    "wildlife": [
      79,
      92,
      93,
      100
    ],
    "country_iso3": "SYC"
  },
  {
    "name": "Canyon",
    "lat": "44.8698",
    "lng": "14.7725",
    "averageMaxDepth": "24",
    "averageDivetime": "46",
    "averageVis": "18",
    "level": [
      "beginner",
      "advanced",
      "expert"
    ],
    "wildlife": [
      54,
      58,
      107,
      112,
      119,
      126,
      136,
      137,
      138,
      150,
      151,
      152,
      153,
      154,
      155,
      156
    ],
    "country_iso3": "HRV"
  },
  {
    "name": "Krava",
    "lat": "43.0779",
    "lng": "16.2193",
    "averageMaxDepth": "23",
    "averageDivetime": "44",
    "averageVis": "23",
    "level": [
      "beginner",
      "advanced"
    ],
    "wildlife": [
      116,
      126,
      136,
      138,
      150,
      151,
      152,
      153,
      154,
      156
    ],
    "country_iso3": "HRV"
  },
  {
    "name": "Waldbad Anif",
    "lat": "47.7339",
    "lng": "13.0792",
    "averageMaxDepth": "5",
    "averageDivetime": "35",
    "averageVis": "8",
    "level": [
      "beginner"
    ],
    "wildlife": [
      27
    ],
    "country_iso3": "AUT"
  },